,Unnamed: 0,Unnamed: 0.1,Unnamed: 0.1.1,Unnamed: 0.1.1.1,Unnamed: 0.1.1.1.1,Unnamed: 0.1.1.1.1.1,Unnamed: 0.1.1.1.1.1.1,Unnamed: 0.1.1.1.1.1.1.1,Unnamed: 0.1.1.1.1.1.1.1.1,Unnamed: 0.1.1.1.1.1.1.1.1.1,Unnamed: 0.1.1.1.1.1.1.1.1.1.1,Unnamed: 0.1.1.1.1.1.1.1.1.1.1.1,Unnamed: 0.1.1.1.1.1.1.1.1.1.1.1.1,Unnamed: 0.1.1.1.1.1.1.1.1.1.1.1.1.1,Unnamed: 0.1.1.1.1.1.1.1.1.1.1.1.1.1.1,Unnamed: 0.1.1.1.1.1.1.1.1.1.1.1.1.1.1.1,Unnamed: 0.1.1.1.1.1.1.1.1.1.1.1.1.1.1.1.1,Unnamed: 0.1.1.1.1.1.1.1.1.1.1.1.1.1.1.1.1.1,Unnamed: 0.1.1.1.1.1.1.1.1.1.1.1.1.1.1.1.1.1.1,Unnamed: 0.1.1.1.1.1.1.1.1.1.1.1.1.1.1.1.1.1.1.1,Unnamed: 0.1.1.1.1.1.1.1.1.1.1.1.1.1.1.1.1.1.1.1.1,Unnamed: 0.1.1.1.1.1.1.1.1.1.1.1.1.1.1.1.1.1.1.1.1.1,Unnamed: 0.1.1.1.1.1.1.1.1.1.1.1.1.1.1.1.1.1.1.1.1.1.1,Unnamed: 0.1.1.1.1.1.1.1.1.1.1.1.1.1.1.1.1.1.1.1.1.1.1.1,Unnamed: 0.1.1.1.1.1.1.1.1.1.1.1.1.1.1.1.1.1.1.1.1.1.1.1.1,Unnamed: 0.1.1.1.1.1.1.1.1.1.1.1.1.1.1.1.1.1.1.1.1.1.1.1.1.1,Unnamed: 0.1.1.1.1.1.1.1.1.1.1.1.1.1.1.1.1.1.1.1.1.1.1.1.1.1.1,Unnamed: 0.1.1.1.1.1.1.1.1.1.1.1.1.1.1.1.1.1.1.1.1.1.1.1.1.1.1.1,Unnamed: 0.1.1.1.1.1.1.1.1.1.1.1.1.1.1.1.1.1.1.1.1.1.1.1.1.1.1.1.1,Unnamed: 0.1.1.1.1.1.1.1.1.1.1.1.1.1.1.1.1.1.1.1.1.1.1.1.1.1.1.1.1.1,CENTER_NAME,name,LATITUDE,LONGITUDE,URL,school_zones
0,0,0,0,0,0,0,0,0,0,0,0,0,0,0,0,0,0,0,0,0,0,0,0,0,0,0,0,0,0,0,Faith Assembly Christian Center,Faith Assembly Christian Center,35.96372262,-78.90907645,https://www.facc-ministries.org,"All,Fayetteville Street Elementary,Hillside High,Lakewood Middle"
1,1,1,1,1,1,1,1,1,1,1,1,1,1,1,1,1,1,1,1,1,1,1,1,1,1,1,1,1,1,1,Emmanuel Praise & Worship Center,Emmanuel Praise & Worship Center,35.96506003,-78.90563251,http://theepwc.org,"All,Fayetteville Street Elementary,Hillside High,Lakewood Middle"
2,2,2,2,2,2,2,2,2,2,2,2,2,2,2,2,2,2,2,2,2,2,2,2,2,2,2,2,2,2,2,W. Deen Mohammed Islamic Center,W. Deen Mohammed Islamic Center,35.98089743,-78.89988185,http://www.wdmislamiccenter.com,"All,Brogden Middle,C.C. Spaulding Elementary,Jordan High,Lakewood Middle"
3,3,3,3,3,3,3,3,3,3,3,3,3,3,3,3,3,3,3,3,3,3,3,3,3,3,3,3,3,3,3,New Destiny Christian,New Destiny Christian,35.98058488,-78.89584781,https://www.newdestinychristiancenter.com,"All,Jordan High,Lakewood Middle"
4,4,4,4,4,4,4,4,4,4,4,4,4,4,4,4,4,4,4,4,4,4,4,4,4,4,4,4,4,4,4,Rebuild Fellowship,Rebuild Fellowship,35.9822518,-78.8969207,https://www.rebuildchurch.com,"All,Jordan High,Lakewood Middle"
5,5,5,5,5,5,5,5,5,5,5,5,5,5,5,5,5,5,5,5,5,5,5,5,5,5,5,5,5,5,5,Russell Memorial CME Church,Russell Memorial CME Church,35.98051543,-78.89112712,http://russellmemorialcme.com,"All,Hillside High,Lakewood Middle,Lowes Grove Middle"
6,6,6,6,6,6,6,6,6,6,6,6,6,6,6,6,6,6,6,6,6,6,6,6,6,6,6,6,6,6,6,Word of Life Worship Center,Word of Life Worship Center,35.98502991,-78.89992477,https://wlwc.org,"All,Brogden Middle,C.C. Spaulding Elementary,Jordan High,Lakewood Middle"
7,7,7,7,7,7,7,7,7,7,7,7,7,7,7,7,7,7,7,7,7,7,7,7,7,7,7,7,7,7,7,"Durham, Revival Worship Centre","Durham, Revival Worship Centre",35.98867604,-78.89404537,http://drwconline.org,"All,Brogden Middle,Lakewood Middle,Riverside High"
8,8,8,8,8,8,8,8,8,8,8,8,8,8,8,8,8,8,8,8,8,8,8,8,8,8,8,8,8,8,8,Greater Bethlehem Temple Apostolic Faith Church,Greater Bethlehem Temple Apostolic Faith Church,35.98648838,-78.88859512,http://www.usachurches.org/church/bethlehem-temple-apostolic-faith-church.htm,"All,Brogden Middle,Lakewood Middle,Riverside High"
9,9,9,9,9,9,9,9,9,9,9,9,9,9,9,9,9,9,9,9,9,9,9,9,9,9,9,9,9,9,9,United Nations Worship Center,United Nations Worship Center,35.9872697,-78.92869951,http://www.unitednationschurch.org,"All,Brogden Middle,Jordan High,Lakewood Elementary,Lakewood Middle"
10,10,10,10,10,10,10,10,10,10,10,10,10,10,10,10,10,10,10,10,10,10,10,10,10,10,10,10,10,10,10,Kingdom Builders Christian Center,Kingdom Builders Christian Center,35.98060224,-78.95530702,http://kingdom-builders.com,"All,Brogden Middle,Forest View Elementary,Jordan High,Lakewood Middle"
11,11,11,11,11,11,11,11,11,11,11,11,11,11,11,11,11,11,11,11,11,11,11,11,11,11,11,11,11,11,11,Ar-Razzaq Islamic Center,Ar-Razzaq Islamic Center,35.99824199,-78.91556741,https://arrazzaqislamiccenter.org,"All,Brogden Middle,E.K. Powe Elementary,Jordan High,Lakewood Middle"
12,12,12,12,12,12,12,12,12,12,12,12,12,12,12,12,12,12,12,12,12,12,12,12,12,12,12,12,12,12,12,Ecclesia House of Prayer,Ecclesia House of Prayer,35.99148865,-78.88612749,https://www.discoverdurham.com/directory/ecclesia-house-of-prayer/,"All,Brogden Middle,Lakewood Middle,Riverside High"
13,13,13,13,13,13,13,13,13,13,13,13,13,13,13,13,13,13,13,13,13,13,13,13,13,13,13,13,13,13,13,Ekklesia Community Development Center,Ekklesia Community Development Center,35.99628028,-78.88934614,https://www.guidestar.org/profile/30-0404366,"All,Brogden Middle,Eastway Elementary,Lakewood Middle"
14,14,14,14,14,14,14,14,14,14,14,14,14,14,14,14,14,14,14,14,14,14,14,14,14,14,14,14,14,14,14,Nehemiah Christian Center,Nehemiah Christian Center,35.99967165,-78.89712309,https://www.visitncc.com,"All,Brogden Middle,Lakewood Middle,Riverside High"
15,15,15,15,15,15,15,15,15,15,15,15,15,15,15,15,15,15,15,15,15,15,15,15,15,15,15,15,15,15,15,Rivers of Water Christian Center,Rivers of Water Christian Center,35.99510398,-78.87569368,https://rowcc.org,"All,Eastway Elementary,Lakewood Middle"
16,16,16,16,16,16,16,16,16,16,16,16,16,16,16,16,16,16,16,16,16,16,16,16,16,16,16,16,16,16,16,Lincoln Memorial Baptist Church,Lincoln Memorial Baptist Church,35.98017173,-78.90564859,https://mylmbc.org,"All,Brogden Middle,C.C. Spaulding Elementary,Jordan High,Lakewood Middle"
17,17,17,17,17,17,17,17,17,17,17,17,17,17,17,17,17,17,17,17,17,17,17,17,17,17,17,17,17,17,17,St. Titus' Episcopal Church,St. Titus' Episcopal Church,35.9780533,-78.90238703,https://sttitusdurham.org,"All,Brogden Middle,C.C. Spaulding Elementary,Jordan High,Lakewood Middle"
18,18,18,18,18,18,18,18,18,18,18,18,18,18,18,18,18,18,18,18,18,18,18,18,18,18,18,18,18,18,18,Centennial Chapel and Garden,Centennial Chapel and Garden,35.97510129,-78.90105665,https://m.nccu.edu/students/device/text/map/detail?filter=&feed=nccu&id=329&parentId=,"All,Hillside High,Lakewood Middle"
19,19,19,19,19,19,19,19,19,19,19,19,19,19,19,19,19,19,19,19,19,19,19,19,19,19,19,19,19,19,19,Mount Vernon Baptist Church,Mount Vernon Baptist Church,35.98402644,-78.90238703,https://mvbcdurham.org,"All,Brogden Middle,C.C. Spaulding Elementary,Jordan High,Lakewood Middle"
20,20,20,20,20,20,20,20,20,20,20,20,20,20,20,20,20,20,20,20,20,20,20,20,20,20,20,20,20,20,20,Gethsemane Baptist Church,Gethsemane Baptist Church,35.98565856,-78.90303076,https://www.discoverdurham.com/directory/gethsemane-baptist-church/,"All,Brogden Middle,C.C. Spaulding Elementary,Jordan High,Lakewood Middle"
21,21,21,21,21,21,21,21,21,21,21,21,21,21,21,21,21,21,21,21,21,21,21,21,21,21,21,21,21,21,21,Mt. Zion Holy Church,Mt. Zion Holy Church,35.97989391,-78.89633596,http://www.mountzionuhc.com,"All,Jordan High,Lakewood Middle"
22,22,22,22,22,22,22,22,22,22,22,22,22,22,22,22,22,22,22,22,22,22,22,22,22,22,22,22,22,22,22,First Chronicles Community Church,First Chronicles Community Church,35.98114411,-78.89569223,http://firstchroniclescommunitychurch.org,"All,Jordan High,Lakewood Middle"
23,23,23,23,23,23,23,23,23,23,23,23,23,23,23,23,23,23,23,23,23,23,23,23,23,23,23,23,23,23,23,Fisher Memorial United Holy Church of America,Fisher Memorial United Holy Church of America,35.98482514,-78.89946878,https://www.discoverdurham.com/directory/fisher-memorial-united-holy-church-of-america/,"All,Brogden Middle,C.C. Spaulding Elementary,Jordan High,Lakewood Middle"
24,24,24,24,24,24,24,24,24,24,24,24,24,24,24,24,24,24,24,24,24,24,24,24,24,24,24,24,24,24,24,Covenant Presbyterian Church,Covenant Presbyterian Church,35.96798127,-78.91075552,https://www.cpcdurham.org/about-the-pastor,"All,Brogden Middle,C.C. Spaulding Elementary,Hillside High,Lakewood Middle"
25,25,25,25,25,25,25,25,25,25,25,25,25,25,25,25,25,25,25,25,25,25,25,25,25,25,25,25,25,25,25,Faucette Memorial CME,Faucette Memorial CME,35.96881487,-78.91637743,https://www.discoverdurham.com/directory/faucette-memorial-c-m-e-church/,"All,Brogden Middle,Jordan High,Lakewood Elementary,Lakewood Middle"
26,26,26,26,26,26,26,26,26,26,26,26,26,26,26,26,26,26,26,26,26,26,26,26,26,26,26,26,26,26,26,Faith Tabernacle Church of Durham,Faith Tabernacle Church of Durham,35.96429945,-78.92006815,https://www.discoverdurham.com/directory/faith-tabernacle-church-of-durham-inc/,"All,Jordan High,Lakewood Middle,Southwest Elementary"
27,27,27,27,27,27,27,27,27,27,27,27,27,27,27,27,27,27,27,27,27,27,27,27,27,27,27,27,27,27,27,Jamaat Ibad Ar Rahman,Jamaat Ibad Ar Rahman,35.96316188,-78.90854538,https://ibadarrahman.org,"All,Fayetteville Street Elementary,Hillside High,Lakewood Middle,Lowes Grove Middle"
28,28,28,28,28,28,28,28,28,28,28,28,28,28,28,28,28,28,28,28,28,28,28,28,28,28,28,28,28,28,28,Southside Church of Christ,Southside Church of Christ,35.96276242,-78.90086353,https://sside.org,"All,Fayetteville Street Elementary,Hillside High,Lakewood Middle"
29,29,29,29,29,29,29,29,29,29,29,29,29,29,29,29,29,29,29,29,29,29,29,29,29,29,29,29,29,29,29,Gateway To Heaven United Holy Church,Gateway To Heaven United Holy Church,35.96672218,-78.9026016,https://nccompanies.com/company/0796297/gateway-to-heaven-united-holy-church-inc.html,"All,Fayetteville Street Elementary,Hillside High,Lakewood Middle"
30,30,30,30,30,30,30,30,30,30,30,30,30,30,30,30,30,30,30,30,30,30,30,30,30,30,30,30,30,30,30,Greater Bethlehem Temple Apostolic Faith Church,Greater Bethlehem Temple Apostolic Faith Church,35.98612735,-78.88841808,http://www.usachurches.org/church/bethlehem-temple-apostolic-faith-church.htm,"All,Lakewood Middle"
31,31,31,31,31,31,31,31,31,31,31,31,31,31,31,31,31,31,31,31,31,31,31,31,31,31,31,31,31,31,31,God First People Second Church,God First People Second Church,35.98894006,-78.88919056,https://www.ctmobi.com/listing/8712034/god-first-people-second-church,"All,Brogden Middle,Lakewood Middle,Riverside High"
32,32,32,32,32,32,32,32,32,32,32,32,32,32,32,32,32,32,32,32,32,32,32,32,32,32,32,32,32,32,32,The Church of the Apostolic Revival International,The Church of the Apostolic Revival International,35.98696076,-78.88764561,http://www.usachurches.org/church/the-church-of-the-apostolic-revival-international.htm,"All,Lakewood Middle"
33,33,33,33,33,33,33,33,33,33,33,33,33,33,33,33,33,33,33,33,33,33,33,33,33,33,33,33,33,33,33,United Assembly for Christ,United Assembly for Christ,35.98991233,-78.89537037,https://www.discoverdurham.com/directory/united-assembly-for-christ/,"All,Brogden Middle,Lakewood Middle,Riverside High"
34,34,34,34,34,34,34,34,34,34,34,34,34,34,34,34,34,34,34,34,34,34,34,34,34,34,34,34,34,34,34,Monroe Christian Church,Monroe Christian Church,35.96442103,-78.88820351,https://www.dnb.com/business-directory/company-profiles.monroe_christian_church.4d2817e23e8cff04d9d915c79eda362c.html,"All,Hillside High,Lakewood Middle,Lowes Grove Middle"
35,35,35,35,35,35,35,35,35,35,35,35,35,35,35,35,35,35,35,35,35,35,35,35,35,35,35,35,35,35,35,Church of the Abiding Savior,Church of the Abiding Savior,35.96960504,-78.89277399,https://abiding-savior-lutheran.org,"All,Hillside High,Lakewood Middle,Lowes Grove Middle"
36,36,36,36,36,36,36,36,36,36,36,36,36,36,36,36,36,36,36,36,36,36,36,36,36,36,36,36,36,36,36,White Rock Baptist Church,White Rock Baptist Church,35.95767348,-78.91066969,https://www.whiterockbaptistchurch.org,"All,Fayetteville Street Elementary,Hillside High,Lakewood Middle,Lowes Grove Middle"
37,37,37,37,37,37,37,37,37,37,37,37,37,37,37,37,37,37,37,37,37,37,37,37,37,37,37,37,37,37,37,Faith Congregation United,Faith Congregation United,35.96300557,-78.92506778,,"All,Jordan High,Lakewood Middle,Southwest Elementary"
38,38,38,38,38,38,38,38,38,38,38,38,38,38,38,38,38,38,38,38,38,38,38,38,38,38,38,38,38,38,38,New Life Chapel,New Life Chapel,35.96449918,-78.92133415,https://www.newlifechapel.net,"All,Jordan High,Lakewood Middle,Southwest Elementary"
39,39,39,39,39,39,39,39,39,39,39,39,39,39,39,39,39,39,39,39,39,39,39,39,39,39,39,39,39,39,39,Bell Yeager Freewill Baptist Church,Bell Yeager Freewill Baptist Church,35.96432551,-78.91772926,https://www.bellyeagerfwb.org,"All,Jordan High,Lakewood Middle,Southwest Elementary"
40,40,40,40,40,40,40,40,40,40,40,40,40,40,40,40,40,40,40,40,40,40,40,40,40,40,40,40,40,40,40,Agape & Power Deliverance Ministry,Agape & Power Deliverance Ministry,35.96514177,-78.91931713,https://toplocalplaces.com/united-states/durham/church-religious-organization/agape-power-deliverance-ministry-uhc-of-america/110315032331593,"All,Jordan High,Lakewood Middle,Southwest Elementary"
41,41,41,41,41,41,41,41,41,41,41,41,41,41,41,41,41,41,41,41,41,41,41,41,41,41,41,41,41,41,41,St. Mark African Methodist Episcopal Zion Church,St. Mark African Methodist Episcopal Zion Church,35.98847091,-78.90130985,https://stmarkamez.org,"All,Brogden Middle,C.C. Spaulding Elementary,Jordan High,Lakewood Middle"
42,42,42,42,42,42,42,42,42,42,42,42,42,42,42,42,42,42,42,42,42,42,42,42,42,42,42,42,42,42,42,Immanuel Temple Seventh Day,Immanuel Temple Seventh Day,35.97987617,-78.89540899,https://www.immanueltemplechurch.com,"All,Jordan High,Lakewood Middle"
43,43,43,43,43,43,43,43,43,43,43,43,43,43,43,43,43,43,43,43,43,43,43,43,43,43,43,43,43,43,43,Kyles Temple AME Zion Church,Kyles Temple AME Zion Church,35.97911395,-78.90102156,https://www.kylestempleamez.com,"All,Brogden Middle,C.C. Spaulding Elementary,Jordan High,Lakewood Middle"
44,44,44,44,44,44,44,44,44,44,44,44,44,44,44,44,44,44,44,44,44,44,44,44,44,44,44,44,44,44,44,Restoration of Faith Church,Restoration of Faith Church,35.9714386,-78.91084917,https://opencorporates.com/companies/us_nc/1515588,"All,Brogden Middle,C.C. Spaulding Elementary,Hillside High,Lakewood Middle"
45,45,45,45,45,45,45,45,45,45,45,45,45,45,45,45,45,45,45,45,45,45,45,45,45,45,45,45,45,45,45,St. Joseph's AME Church,St. Joseph's AME Church,35.96861659,-78.90239485,https://www.stjosephame.org,"All,Fayetteville Street Elementary,Hillside High,Lakewood Middle"
46,46,46,46,46,46,46,46,46,46,46,46,46,46,46,46,46,46,46,46,46,46,46,46,46,46,46,46,46,46,46,A Place of Hope Community Wesleyan Church,A Place of Hope Community Wesleyan Church,36.00474759,-78.8845927,https://www.unitedstateschurches.com/north-carolina/a-place-of-hope-community-wesleyan-church-durham/178761,"All,Eastway Elementary,Lakewood Middle"
47,47,47,47,47,47,47,47,47,47,47,47,47,47,47,47,47,47,47,47,47,47,47,47,47,47,47,47,47,47,47,Aldersgate United Methodist Church,Aldersgate United Methodist Church,36.08450584,-78.93997792,https://aldersgate.org,"All,Lakewood Middle"
48,48,48,48,48,48,48,48,48,48,48,48,48,48,48,48,48,48,48,48,48,48,48,48,48,48,48,48,48,48,48,Asbury United Methodist Church,Asbury United Methodist Church,36.01100048,-78.91805162,https://www.asburyunitedmethodist.com,"All,Brogden Middle,E.K. Powe Elementary,Lakewood Middle,Riverside High"
49,49,49,49,49,49,49,49,49,49,49,49,49,49,49,49,49,49,49,49,49,49,49,49,49,49,49,49,49,49,49,Berea Baptist Church,Berea Baptist Church,35.93122487,-78.91807425,http://www.bereabaptistdurham.org,"All,Jordan High,Lakewood Middle,Southwest Elementary"
50,50,50,50,50,50,50,50,50,50,50,50,50,50,50,50,50,50,50,50,50,50,50,50,50,50,50,50,50,50,50,Bethany United Methodist Church,Bethany United Methodist Church,36.03148024,-78.928914,https://bethanyumcdurham.org,"All,Brogden Middle,Lakewood Middle,Riverside High"
51,51,51,51,51,51,51,51,51,51,51,51,51,51,51,51,51,51,51,51,51,51,51,51,51,51,51,51,51,51,51,Bethel Christian Center,Bethel Christian Center,36.04623483,-78.95784384,https://betheldurham.com,"All,Brogden Middle,Hillandale Elementary,Lakewood Middle,Riverside High"
52,52,52,52,52,52,52,52,52,52,52,52,52,52,52,52,52,52,52,52,52,52,52,52,52,52,52,52,52,52,52,Bethesda Baptist Church,Bethesda Baptist Church,35.94386521,-78.83874035,https://www.bethesdabaptistchurch.com,"All,Hillside High,Lakewood Middle,Lowes Grove Middle"
53,53,53,53,53,53,53,53,53,53,53,53,53,53,53,53,53,53,53,53,53,53,53,53,53,53,53,53,53,53,53,World Mission Society Church of God,World Mission Society Church of God,35.93676409,-78.84127324,https://english.watv.org,"All,Hillside High,Lakewood Middle,Lowes Grove Middle"
54,54,54,54,54,54,54,54,54,54,54,54,54,54,54,54,54,54,54,54,54,54,54,54,54,54,54,54,54,54,54,Blacknall Memorial Church,Blacknall Memorial Church,36.00846089,-78.92126917,https://blacknall.org,"All,Brogden Middle,E.K. Powe Elementary,Lakewood Middle,Riverside High"
55,55,55,55,55,55,55,55,55,55,55,55,55,55,55,55,55,55,55,55,55,55,55,55,55,55,55,55,55,55,55,Braggtown Baptist Church,Braggtown Baptist Church,36.03344838,-78.89018134,https://www.bbcdurham.com,"All,Lakewood Middle"
56,56,56,56,56,56,56,56,56,56,56,56,56,56,56,56,56,56,56,56,56,56,56,56,56,56,56,56,56,56,56,First Calvary Baptist Church,First Calvary Baptist Church,35.97065728,-78.84946665,https://www.firstcalvary.org,"All,Lakewood Middle"
57,57,57,57,57,57,57,57,57,57,57,57,57,57,57,57,57,57,57,57,57,57,57,57,57,57,57,57,57,57,57,Elizabeth Street UMC,Elizabeth Street UMC,36.00552795,-78.89123298,https://elizabethstreetumc.org,"All,Eastway Elementary,Lakewood Middle"
58,58,58,58,58,58,58,58,58,58,58,58,58,58,58,58,58,58,58,58,58,58,58,58,58,58,58,58,58,58,58,Cameron Grove Baptist Church,Cameron Grove Baptist Church,36.03371352,-78.88018981,https://www.discoverdurham.com/directory/cameron-grove-baptist-church/,"All,Lakewood Middle"
59,59,59,59,59,59,59,59,59,59,59,59,59,59,59,59,59,59,59,59,59,59,59,59,59,59,59,59,59,59,59,Christ the King Moravian Church,Christ the King Moravian Church,35.92947678,-78.95196943,https://ctkhome.org,"All,Jordan High,Lakewood Middle"
60,60,60,60,60,60,60,60,60,60,60,60,60,60,60,60,60,60,60,60,60,60,60,60,60,60,60,60,60,60,60,Christian Assembly Church,Christian Assembly Church,36.09250662,-78.91014402,https://www.cadurham.org,"All,Lakewood Middle"
61,61,61,61,61,61,61,61,61,61,61,61,61,61,61,61,61,61,61,61,61,61,61,61,61,61,61,61,61,61,61,Christus Victor Lutheran,Christus Victor Lutheran,35.90405872,-78.90445238,https://christus-victor.org,"All,Hillside High,Lakewood Middle,Lowes Grove Middle,Parkwood Elementary"
62,62,62,62,62,62,62,62,62,62,62,62,62,62,62,62,62,62,62,62,62,62,62,62,62,62,62,62,62,62,62,Cole Mill Road Church of Christ,Cole Mill Road Church of Christ,36.03940259,-78.95710078,https://www.colemillroad.org,"All,Brogden Middle,Hillandale Elementary,Lakewood Middle,Riverside High"
63,63,63,63,63,63,63,63,63,63,63,63,63,63,63,63,63,63,63,63,63,63,63,63,63,63,63,63,63,63,63,The Church of Jesus Christ of Latter-day Saints,The Church of Jesus Christ of Latter-day Saints,36.03850033,-78.95890323,https://www.churchofjesuschrist.org/?lang=eng,"All,Brogden Middle,Hillandale Elementary,Lakewood Middle,Riverside High"
64,64,64,64,64,64,64,64,64,64,64,64,64,64,64,64,64,64,64,64,64,64,64,64,64,64,64,64,64,64,64,Church of God of Prophecy,Church of God of Prophecy,36.03891308,-78.880172,https://cogop.org,"All,Lakewood Middle"
65,65,65,65,65,65,65,65,65,65,65,65,65,65,65,65,65,65,65,65,65,65,65,65,65,65,65,65,65,65,65,Church of the Abiding Savior,Church of the Abiding Savior,35.97032921,-78.89267077,https://abiding-savior-lutheran.org,"All,Hillside High,Lakewood Middle,Lowes Grove Middle"
66,66,66,66,66,66,66,66,66,66,66,66,66,66,66,66,66,66,66,66,66,66,66,66,66,66,66,66,66,66,66,Church of the Good Shepherd,Church of the Good Shepherd,35.97132167,-78.97593549,https://cgsonline.org,"All,Forest View Elementary,Jordan High,Lakewood Middle"
67,67,67,67,67,67,67,67,67,67,67,67,67,67,67,67,67,67,67,67,67,67,67,67,67,67,67,67,67,67,67,Church Of The Lord Jesus,Church Of The Lord Jesus,35.98655969,-78.88668376,https://tcljc.com,"All,Lakewood Middle"
68,68,68,68,68,68,68,68,68,68,68,68,68,68,68,68,68,68,68,68,68,68,68,68,68,68,68,68,68,68,68,Community Baptist Church,Community Baptist Church,35.93503203,-78.90775737,https://cbcdurham.net,"All,Hillside High,Lakewood Middle,Lowes Grove Middle,Parkwood Elementary"
69,69,69,69,69,69,69,69,69,69,69,69,69,69,69,69,69,69,69,69,69,69,69,69,69,69,69,69,69,69,69,Cornerstone Bible Church,Cornerstone Bible Church,36.09988517,-78.93219509,https://www.cbcofdurham.com,"All,Lakewood Middle"
70,70,70,70,70,70,70,70,70,70,70,70,70,70,70,70,70,70,70,70,70,70,70,70,70,70,70,70,70,70,70,Cornerstone Community,Cornerstone Community,36.03346967,-78.97726211,http://www.c2churchrm.com,"All,Brogden Middle,Hillandale Elementary,Lakewood Middle,Riverside High"
71,71,71,71,71,71,71,71,71,71,71,71,71,71,71,71,71,71,71,71,71,71,71,71,71,71,71,71,71,71,71,Covenant Presbyterian Church,Covenant Presbyterian Church,35.96819467,-78.91097548,https://www.cpcdurham.org,"All,Brogden Middle,C.C. Spaulding Elementary,Hillside High,Lakewood Middle"
72,72,72,72,72,72,72,72,72,72,72,72,72,72,72,72,72,72,72,72,72,72,72,72,72,72,72,72,72,72,72,Cresset Baptist Church,Cresset Baptist Church,35.97311698,-78.97364395,https://www.discoverdurham.com/directory/cresset-baptist-church/,"All,Forest View Elementary,Jordan High,Lakewood Middle"
73,73,73,73,73,73,73,73,73,73,73,73,73,73,73,73,73,73,73,73,73,73,73,73,73,73,73,73,73,73,73,Dayspring Fellowship Church,Dayspring Fellowship Church,36.01409258,-78.92156187,https://www.discoverdurham.com/directory/dayspring-fellowship-church/,"All,Brogden Middle,E.K. Powe Elementary,Lakewood Middle,Riverside High"
74,74,74,74,74,74,74,74,74,74,74,74,74,74,74,74,74,74,74,74,74,74,74,74,74,74,74,74,74,74,74,Duke Memorial United Methodist Church,Duke Memorial United Methodist Church,35.99815358,-78.90919692,https://www.dukememorial.org,"All,Brogden Middle,C.C. Spaulding Elementary,Jordan High,Lakewood Middle"
75,75,75,75,75,75,75,75,75,75,75,75,75,75,75,75,75,75,75,75,75,75,75,75,75,75,75,75,75,75,75,Duke's Chapel UMC,Duke's Chapel UMC,36.04315832,-78.88094429,http://dukeschapel.org,"All,Lakewood Middle"
76,76,76,76,76,76,76,76,76,76,76,76,76,76,76,76,76,76,76,76,76,76,76,76,76,76,76,76,76,76,76,First Baptist Church Durham,First Baptist Church Durham,35.99741681,-78.89709822,https://fbcdurham.org,"All,Brogden Middle,Lakewood Middle,Riverside High"
77,77,77,77,77,77,77,77,77,77,77,77,77,77,77,77,77,77,77,77,77,77,77,77,77,77,77,77,77,77,77,Durham Memorial Baptist Church,Durham Memorial Baptist Church,35.975614,-78.80401297,https://www.durhammemorial.org,"All,Lakewood Middle"
78,78,78,78,78,78,78,78,78,78,78,78,78,78,78,78,78,78,78,78,78,78,78,78,78,78,78,78,78,78,78,Durham Mennonite Church,Durham Mennonite Church,35.98004238,-78.84088296,https://www.durhammennonite.org,"All,Lakewood Middle"
79,79,79,79,79,79,79,79,79,79,79,79,79,79,79,79,79,79,79,79,79,79,79,79,79,79,79,79,79,79,79,Durham Spanish SDA Church,Durham Spanish SDA Church,35.99229656,-78.87470908,https://durhamspanishnc.adventistchurch.org,"All,Lakewood Middle"
80,80,80,80,80,80,80,80,80,80,80,80,80,80,80,80,80,80,80,80,80,80,80,80,80,80,80,80,80,80,80,Ebenezer Missionary Baptist Church,Ebenezer Missionary Baptist Church,35.95978821,-78.88689095,https://embcofdurham.com,"All,Hillside High,Lakewood Middle,Lowes Grove Middle"
81,81,81,81,81,81,81,81,81,81,81,81,81,81,81,81,81,81,81,81,81,81,81,81,81,81,81,81,81,81,81,Edgewood Baptist Church,Edgewood Baptist Church,36.08485984,-78.87123541,https://www.edgewoodbaptistdurham.com,"All,Lakewood Middle"
82,82,82,82,82,82,82,82,82,82,82,82,82,82,82,82,82,82,82,82,82,82,82,82,82,82,82,82,82,82,82,Emmanuel AME Church,Emmanuel AME Church,35.95626848,-78.88573785,https://www.emmanuelamec.com,"All,Hillside High,Lakewood Middle,Lowes Grove Middle"
83,83,83,83,83,83,83,83,83,83,83,83,83,83,83,83,83,83,83,83,83,83,83,83,83,83,83,83,83,83,83,Epworth United Methodist Church,Epworth United Methodist Church,35.97029191,-78.93383555,http://www.epworth-umc.org,"All,Jordan High,Lakewood Middle"
84,84,84,84,84,84,84,84,84,84,84,84,84,84,84,84,84,84,84,84,84,84,84,84,84,84,84,84,84,84,84,Evangel Assembly of God,Evangel Assembly of God,35.97390209,-78.84782217,https://www.eagchurch.life,"All,Lakewood Middle"
85,85,85,85,85,85,85,85,85,85,85,85,85,85,85,85,85,85,85,85,85,85,85,85,85,85,85,85,85,85,85,Faith Alliance Church,Faith Alliance Church,36.083839,-78.93852298,https://www.faithallianceofdurham.org,"All,Lakewood Middle"
86,86,86,86,86,86,86,86,86,86,86,86,86,86,86,86,86,86,86,86,86,86,86,86,86,86,86,86,86,86,86,Faith Assembly Christian Center,Faith Assembly Christian Center,35.96393902,-78.90933797,https://www.facc-ministries.org,"All,Fayetteville Street Elementary,Hillside High,Lakewood Middle"
87,87,87,87,87,87,87,87,87,87,87,87,87,87,87,87,87,87,87,87,87,87,87,87,87,87,87,87,87,87,87,Faith Baptist Church,Faith Baptist Church,36.01484494,-78.82431359,https://faithbaptistdurham.com,"All,Lakewood Middle"
88,88,88,88,88,88,88,88,88,88,88,88,88,88,88,88,88,88,88,88,88,88,88,88,88,88,88,88,88,88,88,Faith Fellowship Church,Faith Fellowship Church,36.01504613,-78.91109223,https://www.faithstreet.com/church/faith-fellowship-church-durham-nc,"All,Brogden Middle,E.K. Powe Elementary,Lakewood Middle,Riverside High"
89,89,89,89,89,89,89,89,89,89,89,89,89,89,89,89,89,89,89,89,89,89,89,89,89,89,89,89,89,89,89,First Assembly Of God,First Assembly Of God,36.05080419,-78.87081703,https://ag.org/church?g=c799504d-bc63-4ccb-8a57-8200a7991ebe&d=False,"All,Lakewood Middle"
90,90,90,90,90,90,90,90,90,90,90,90,90,90,90,90,90,90,90,90,90,90,90,90,90,90,90,90,90,90,90,First Calvary Baptist Church,First Calvary Baptist Church,35.99234379,-78.91952622,https://www.firstcalvary.org,"All,Brogden Middle,C.C. Spaulding Elementary,Jordan High,Lakewood Middle"
91,91,91,91,91,91,91,91,91,91,91,91,91,91,91,91,91,91,91,91,91,91,91,91,91,91,91,91,91,91,91,First Free Will Baptist Church,First Free Will Baptist Church,35.98976684,-78.83949808,https://www.discoverdurham.com/directory/first-free-will-baptist-church/,"All,Lakewood Middle"
92,92,92,92,92,92,92,92,92,92,92,92,92,92,92,92,92,92,92,92,92,92,92,92,92,92,92,92,92,92,92,First Presbyterian Church,First Presbyterian Church,35.99417632,-78.89822125,https://firstpres-durham.org/,"All,Brogden Middle,Lakewood Middle,Riverside High"
93,93,93,93,93,93,93,93,93,93,93,93,93,93,93,93,93,93,93,93,93,93,93,93,93,93,93,93,93,93,93,Fletcher's Chapel United Methodist Church,Fletcher's Chapel United Methodist Church,36.01272452,-78.80291357,https://fletcherschapelumc.org/,"All,Lakewood Middle"
94,94,94,94,94,94,94,94,94,94,94,94,94,94,94,94,94,94,94,94,94,94,94,94,94,94,94,94,94,94,94,Glendale Heights United Methodist Church,Glendale Heights United Methodist Church,36.0261884,-78.90755936,http://glendaleheightsumc.org/,"All,Brogden Middle,Lakewood Middle,Riverside High"
95,95,95,95,95,95,95,95,95,95,95,95,95,95,95,95,95,95,95,95,95,95,95,95,95,95,95,95,95,95,95,Good Shepherd Church Of God,Good Shepherd Church Of God,35.98632962,-78.8815934,https://gscogic.wixsite.com/goodshepherd,"All,Lakewood Middle"
96,96,96,96,96,96,96,96,96,96,96,96,96,96,96,96,96,96,96,96,96,96,96,96,96,96,96,96,96,96,96,Gorman Baptist Church,Gorman Baptist Church,36.04491914,-78.81517525,https://www.gormanbc.com/,"All,Lakewood Middle"
97,97,97,97,97,97,97,97,97,97,97,97,97,97,97,97,97,97,97,97,97,97,97,97,97,97,97,97,97,97,97,Grace Baptist Church,Grace Baptist Church,36.00594564,-78.89367043,http://www.gracebaptistdurham.org/,"All,Brogden Middle,Lakewood Middle,Riverside High"
98,98,98,98,98,98,98,98,98,98,98,98,98,98,98,98,98,98,98,98,98,98,98,98,98,98,98,98,98,98,98,Grace Evangelical Lutheran Church,Grace Evangelical Lutheran Church,36.01186003,-78.91198063,https://www.gracedurham.org/,"All,Brogden Middle,E.K. Powe Elementary,Lakewood Middle,Riverside High"
99,99,99,99,99,99,99,99,99,99,99,99,99,99,99,99,99,99,99,99,99,99,99,99,99,99,99,99,99,99,99,Greater Refuge Church,Greater Refuge Church,36.03432046,-78.86577592,https://www.greystonechurch.com/,"All,Lakewood Middle"
100,100,100,100,100,100,100,100,100,100,100,100,100,100,100,100,100,100,100,100,100,100,100,100,100,100,100,100,100,100,100,Grey Stone Baptist Church,Grey Stone Baptist Church,36.01109692,-78.92920422,https://www.greystonechurch.com/,"All,Brogden Middle,E.K. Powe Elementary,Lakewood Middle,Riverside High"
101,101,101,101,101,101,101,101,101,101,101,101,101,101,101,101,101,101,101,101,101,101,101,101,101,101,101,101,101,101,101,Guess Road Baptist Church,Guess Road Baptist Church,36.03533082,-78.92915272,http://new.guessroadbaptist.org/,"All,Brogden Middle,Lakewood Middle,Riverside High"
102,102,102,102,102,102,102,102,102,102,102,102,102,102,102,102,102,102,102,102,102,102,102,102,102,102,102,102,102,102,102,Hanmaum Church,Hanmaum Church,35.9071346,-78.90385152,http://rtp.hanmaum.church/,"All,Hillside High,Lakewood Middle,Lowes Grove Middle,Parkwood Elementary"
103,103,103,103,103,103,103,103,103,103,103,103,103,103,103,103,103,103,103,103,103,103,103,103,103,103,103,103,103,103,103,Holy Infant Catholic Church,Holy Infant Catholic Church,35.91407755,-78.94456878,https://holyinfantchurch.org/,"All,Jordan High,Lakewood Middle,Southwest Elementary"
104,104,104,104,104,104,104,104,104,104,104,104,104,104,104,104,104,104,104,104,104,104,104,104,104,104,104,104,104,104,104,Immaculate Conception Catholic Church,Immaculate Conception Catholic Church,35.99791875,-78.91414545,https://www.icdurham.org/,"All,Brogden Middle,E.K. Powe Elementary,Jordan High,Lakewood Middle"
105,105,105,105,105,105,105,105,105,105,105,105,105,105,105,105,105,105,105,105,105,105,105,105,105,105,105,105,105,105,105,Immanuel Baptist Church,Immanuel Baptist Church,36.06102724,-78.94275376,https://www.visitimmanuel.org/,"All,Brogden Middle,Hillandale Elementary,Lakewood Middle,Riverside High"
106,106,106,106,106,106,106,106,106,106,106,106,106,106,106,106,106,106,106,106,106,106,106,106,106,106,106,106,106,106,106,Immanuel Free Will Baptist Church,Immanuel Free Will Baptist Church,35.94071081,-78.86278858,https://www.discoverdurham.com/directory/immanuel-free-will-baptist-church/,"All,Hillside High,Lakewood Middle,Lowes Grove Middle"
107,107,107,107,107,107,107,107,107,107,107,107,107,107,107,107,107,107,107,107,107,107,107,107,107,107,107,107,107,107,107,Journey Fellowship of Durham,Journey Fellowship of Durham,36.00138161,-78.96828581,https://www.journeyrdu.com/,"All,Forest View Elementary,Jordan High,Lakewood Middle"
108,108,108,108,108,108,108,108,108,108,108,108,108,108,108,108,108,108,108,108,108,108,108,108,108,108,108,108,108,108,108,Korean Presbyterian Church,Korean Presbyterian Church,36.09565694,-78.91202879,https://www.discoverdurham.com/directory/korean-presbyterian-church/,"All,Lakewood Middle"
109,109,109,109,109,109,109,109,109,109,109,109,109,109,109,109,109,109,109,109,109,109,109,109,109,109,109,109,109,109,109,Lakeview Missionary Baptist Church,Lakeview Missionary Baptist Church,36.03861619,-78.87736712,https://www.facebook.com/LakeviewMBC/,"All,Lakewood Middle"
110,110,110,110,110,110,110,110,110,110,110,110,110,110,110,110,110,110,110,110,110,110,110,110,110,110,110,110,110,110,110,Oak Church,Oak Church,35.98676692,-78.92880358,https://www.oakdurham.org/,"All,Brogden Middle,Jordan High,Lakewood Elementary,Lakewood Middle"
111,111,111,111,111,111,111,111,111,111,111,111,111,111,111,111,111,111,111,111,111,111,111,111,111,111,111,111,111,111,111,Layman's Chapel Baptist Church,Layman's Chapel Baptist Church,36.05939633,-78.89995454,https://www.discoverdurham.com/directory/laymans-chapel-baptist-church/,"All,Lakewood Middle,Riverside High"
112,112,112,112,112,112,112,112,112,112,112,112,112,112,112,112,112,112,112,112,112,112,112,112,112,112,112,112,112,112,112,Leesville Road Baptist Church,Leesville Road Baptist Church,35.93838418,-78.78027947,https://leesvilleroadbaptistchurch.org/,"All,Lakewood Middle"
113,113,113,113,113,113,113,113,113,113,113,113,113,113,113,113,113,113,113,113,113,113,113,113,113,113,113,113,113,113,113,Liberty Baptist Church,Liberty Baptist Church,36.06413659,-78.92664668,https://lbcdurham.org/,"All,Hillandale Elementary,Lakewood Middle,Riverside High"
114,114,114,114,114,114,114,114,114,114,114,114,114,114,114,114,114,114,114,114,114,114,114,114,114,114,114,114,114,114,114,Lowe's Grove Baptist Church,Lowe's Grove Baptist Church,35.90463385,-78.88911034,http://lowesgrovebaptistchurch.com/,"All,Hillside High,Lakewood Middle,Lowes Grove Middle"
115,115,115,115,115,115,115,115,115,115,115,115,115,115,115,115,115,115,115,115,115,115,115,115,115,115,115,115,115,115,115,Markham Chapel Baptist Church,Markham Chapel Baptist Church,35.95749385,-78.9540657,https://www.discoverdurham.com/directory/markham-chapel-baptist-church/,"All,Jordan High,Lakewood Middle"
116,116,116,116,116,116,116,116,116,116,116,116,116,116,116,116,116,116,116,116,116,116,116,116,116,116,116,116,116,116,116,McMannen United Methodist Church,McMannen United Methodist Church,36.02808654,-78.96239091,https://mcmannenumc.org/,"All,Brogden Middle,Hillandale Elementary,Lakewood Middle,Riverside High"
117,117,117,117,117,117,117,117,117,117,117,117,117,117,117,117,117,117,117,117,117,117,117,117,117,117,117,117,117,117,117,Millgrove Church Of God In Christ,Millgrove Church Of God In Christ,36.05787946,-78.89867556,https://www.discoverdurham.com/directory/millgrove-church-of-god-christ/,"All,Lakewood Middle,Riverside High"
118,118,118,118,118,118,118,118,118,118,118,118,118,118,118,118,118,118,118,118,118,118,118,118,118,118,118,118,118,118,118,Morehead Avenue Baptist Church,Morehead Avenue Baptist Church,35.99254255,-78.91657022,http://www.moreheadavenuebaptistchurch.org/,"All,Brogden Middle,C.C. Spaulding Elementary,Jordan High,Lakewood Middle"
119,119,119,119,119,119,119,119,119,119,119,119,119,119,119,119,119,119,119,119,119,119,119,119,119,119,119,119,119,119,119,Morning Star Missionary Baptist Church,Morning Star Missionary Baptist Church,35.93849436,-78.90828512,https://www.msmbcd.com/,"All,Hillside High,Lakewood Middle,Lowes Grove Middle,Southwest Elementary"
120,120,120,120,120,120,120,120,120,120,120,120,120,120,120,120,120,120,120,120,120,120,120,120,120,120,120,120,120,120,120,Mount Hermon Baptist Church,Mount Hermon Baptist Church,36.03144797,-79.02055604,https://mounthermondurham.org/,
121,121,121,121,121,121,121,121,121,121,121,121,121,121,121,121,121,121,121,121,121,121,121,121,121,121,121,121,121,121,121,Mt. Olive Missionary Baptist Church,Mt. Olive Missionary Baptist Church,36.03839753,-78.8816154,https://www.mobconline.org/,"All,Lakewood Middle"
122,122,122,122,122,122,122,122,122,122,122,122,122,122,122,122,122,122,122,122,122,122,122,122,122,122,122,122,122,122,122,Mt. Olive Holy Church,Mt. Olive Holy Church,36.00254301,-78.88487425,https://www.discoverdurham.com/directory/mt-olive-holy-church/,"All,Eastway Elementary,Lakewood Middle"
123,123,123,123,123,123,123,123,123,123,123,123,123,123,123,123,123,123,123,123,123,123,123,123,123,123,123,123,123,123,123,Mount Zoar Missionary Baptist Church,Mount Zoar Missionary Baptist Church,36.0052838,-78.8518247,https://www.mzmbc.org/p/contact-us.html,"All,Lakewood Middle"
124,124,124,124,124,124,124,124,124,124,124,124,124,124,124,124,124,124,124,124,124,124,124,124,124,124,124,124,124,124,124,Mt. Bethel Presbyterian Church,Mt. Bethel Presbyterian Church,36.04244877,-78.95662851,https://mtbethelchurch.org/,"All,Brogden Middle,Hillandale Elementary,Lakewood Middle,Riverside High"
125,125,125,125,125,125,125,125,125,125,125,125,125,125,125,125,125,125,125,125,125,125,125,125,125,125,125,125,125,125,125,Mt. Gilead Baptist Church,Mt. Gilead Baptist Church,36.00107749,-78.89201675,http://www.mtgbc.org/,"All,Eastway Elementary,Lakewood Middle"
126,126,126,126,126,126,126,126,126,126,126,126,126,126,126,126,126,126,126,126,126,126,126,126,126,126,126,126,126,126,126,Mt. Level Missionary Baptist Church,Mt. Level Missionary Baptist Church,36.0596236,-78.8955597,https://mtlevelmbc.org/,"All,Lakewood Middle"
127,127,127,127,127,127,127,127,127,127,127,127,127,127,127,127,127,127,127,127,127,127,127,127,127,127,127,127,127,127,127,Mt. Moriah Baptist Church,Mt. Moriah Baptist Church,35.97284171,-79.00917654,https://www.discoverdurham.com/directory/mt-moriah-baptist-church/,
128,128,128,128,128,128,128,128,128,128,128,128,128,128,128,128,128,128,128,128,128,128,128,128,128,128,128,128,128,128,128,Mt. Sylvan United Methodist Church,Mt. Sylvan United Methodist Church,36.09974292,-78.91102483,http://mtsylvan.org/,"All,Lakewood Middle"
129,129,129,129,129,129,129,129,129,129,129,129,129,129,129,129,129,129,129,129,129,129,129,129,129,129,129,129,129,129,129,New Bethel Missionary Baptist Church,New Bethel Missionary Baptist Church,36.01394468,-78.9381618,https://m.facebook.com/profile.php?id=115860681776405&_ft_=mf_story_key.1267499690102021%3Atop_level_post_id.1267499690102021%3Atl_objid.1267499690102021%3Acontent_owner_id_new.100005260055549%3Athrowback_story_fbid.1267499690102021%3Apage_id.115860681776405%3Astory_location.22%3Astory_attachment_style.native_templates%3Atagged_locations.115860681776405%3Apage_insights.%7B%22115860681776405%22%3A%7B%22page_id%22%3A115860681776405%2C%22actor_id%22%3A100005260055549%2C%22dm%22%3A%7B%22isShare%22%3A0%2C%22originalPostOwnerID%22%3A0%7D%2C%22psn%22%3A%22EntStatusCreationStory%22%2C%22role%22%3A4%2C%22sl%22%3A22%7D%7D&__tn__=C-R,"All,Brogden Middle,E.K. Powe Elementary,Lakewood Middle,Riverside High"
130,130,130,130,130,130,130,130,130,130,130,130,130,130,130,130,130,130,130,130,130,130,130,130,130,130,130,130,130,130,130,New Covenant Holiness Church,New Covenant Holiness Church,36.03437373,-78.86875549,http://www.newcovenantdurham.org/,"All,Lakewood Middle"
131,131,131,131,131,131,131,131,131,131,131,131,131,131,131,131,131,131,131,131,131,131,131,131,131,131,131,131,131,131,131,New Jerusalem Baptist Cathedral,New Jerusalem Baptist Cathedral,36.03746346,-78.88807573,https://www.mynjbc.org/,"All,Lakewood Middle,Riverside High"
132,132,132,132,132,132,132,132,132,132,132,132,132,132,132,132,132,132,132,132,132,132,132,132,132,132,132,132,132,132,132,New Jerusalem Free Will Church,New Jerusalem Free Will Church,35.98141866,-78.84394151,https://www.manta.com/c/mm42jbf/new-jerusalem-free-will-baptist-church,"All,Lakewood Middle"
133,133,133,133,133,133,133,133,133,133,133,133,133,133,133,133,133,133,133,133,133,133,133,133,133,133,133,133,133,133,133,New Shiloh Holiness Church,New Shiloh Holiness Church,35.95224004,-78.88164639,https://sites.google.com/site/thenewshilohholinesschurch/,"All,Hillside High,Lakewood Middle,Lowes Grove Middle"
134,134,134,134,134,134,134,134,134,134,134,134,134,134,134,134,134,134,134,134,134,134,134,134,134,134,134,134,134,134,134,North Durham Baptist Church,North Durham Baptist Church,36.11152489,-78.9285223,https://www.facebook.com/ndurhambaptist/,"All,Lakewood Middle"
135,135,135,135,135,135,135,135,135,135,135,135,135,135,135,135,135,135,135,135,135,135,135,135,135,135,135,135,135,135,135,Northside Christian Church,Northside Christian Church,36.05436615,-78.97382811,https://www.northsidechristiandurham.com/,"All,Brogden Middle,Lakewood Middle,Riverside High"
136,136,136,136,136,136,136,136,136,136,136,136,136,136,136,136,136,136,136,136,136,136,136,136,136,136,136,136,136,136,136,Oak Grove Free Will Baptist,Oak Grove Free Will Baptist,35.98197327,-78.89308612,https://www.discoverdurham.com/directory/oak-grove-free-will-baptist/,"All,Jordan High,Lakewood Middle"
137,137,137,137,137,137,137,137,137,137,137,137,137,137,137,137,137,137,137,137,137,137,137,137,137,137,137,137,137,137,137,Olive Branch Baptist Church,Olive Branch Baptist Church,35.97493713,-78.78474591,https://www.obbcdurham.org/,"All,Lakewood Middle"
138,138,138,138,138,138,138,138,138,138,138,138,138,138,138,138,138,138,138,138,138,138,138,138,138,138,138,138,138,138,138,Our Savior Lutheran Church,Our Savior Lutheran Church,36.02511576,-78.90596936,https://www.oslcraleigh.org/,"All,Brogden Middle,Lakewood Middle,Riverside High"
139,139,139,139,139,139,139,139,139,139,139,139,139,139,139,139,139,139,139,139,139,139,139,139,139,139,139,139,139,139,139,Parkwood Baptist Church,Parkwood Baptist Church,35.89427436,-78.90720044,https://www.parkwoodbaptistchurch.com/,"All,Hillside High,Lakewood Middle,Lowes Grove Middle,Parkwood Elementary"
140,140,140,140,140,140,140,140,140,140,140,140,140,140,140,140,140,140,140,140,140,140,140,140,140,140,140,140,140,140,140,Parkwood United Methodist Church,Parkwood United Methodist Church,35.89524159,-78.90973435,http://www.parkwoodumc.org/,"All,Hillside High,Lakewood Middle,Lowes Grove Middle,Parkwood Elementary"
141,141,141,141,141,141,141,141,141,141,141,141,141,141,141,141,141,141,141,141,141,141,141,141,141,141,141,141,141,141,141,Pilgrim Baptist Church,Pilgrim Baptist Church,35.96829927,-78.91658959,https://www.facebook.com/pages/category/Baptist-Church/Pilgrim-Baptist-Church-of-Durham-2420-S-Roxboro-St-Durham-NC-27707-116080221746114/,"All,Brogden Middle,Jordan High,Lakewood Elementary,Lakewood Middle"
142,142,142,142,142,142,142,142,142,142,142,142,142,142,142,142,142,142,142,142,142,142,142,142,142,142,142,142,142,142,142,Plainview Baptist Church,Plainview Baptist Church,36.02613546,-78.78373711,https://www.plainviewbaptistdurham.com/,"All,Lakewood Middle"
143,143,143,143,143,143,143,143,143,143,143,143,143,143,143,143,143,143,143,143,143,143,143,143,143,143,143,143,143,143,143,Progressive Holiness Church,Progressive Holiness Church,35.99500138,-78.87993676,https://www.phcgnc.com/,"All,Eastway Elementary,Lakewood Middle"
144,144,144,144,144,144,144,144,144,144,144,144,144,144,144,144,144,144,144,144,144,144,144,144,144,144,144,144,144,144,144,New Creation United Methodist Church,New Creation United Methodist Church,35.94203341,-78.97768858,http://www.newcreationumcdurham.org/,"All,Jordan High,Lakewood Middle"
145,145,145,145,145,145,145,145,145,145,145,145,145,145,145,145,145,145,145,145,145,145,145,145,145,145,145,145,145,145,145,Ridgecrest Baptist Church,Ridgecrest Baptist Church,36.10279768,-78.91396113,http://www.ridgecrest.cc/,"All,Lakewood Middle"
146,146,146,146,146,146,146,146,146,146,146,146,146,146,146,146,146,146,146,146,146,146,146,146,146,146,146,146,146,146,146,Riverside Baptist Church,Riverside Baptist Church,36.07783366,-78.93208793,https://m.facebook.com/profile.php?id=116832495002317&__tn__=C-R,"All,Lakewood Middle"
147,147,147,147,147,147,147,147,147,147,147,147,147,147,147,147,147,147,147,147,147,147,147,147,147,147,147,147,147,147,147,Rose Of Sharon Baptist Church,Rose Of Sharon Baptist Church,36.06681705,-78.93415645,https://www.rosbc.org/,"All,Hillandale Elementary,Lakewood Middle,Riverside High"
148,148,148,148,148,148,148,148,148,148,148,148,148,148,148,148,148,148,148,148,148,148,148,148,148,148,148,148,148,148,148,Russell Memorial CME Church,Russell Memorial CME Church,35.98095427,-78.8909633,http://russellmemorialcme.com/,"All,Hillside High,Lakewood Middle,Lowes Grove Middle"
149,149,149,149,149,149,149,149,149,149,149,149,149,149,149,149,149,149,149,149,149,149,149,149,149,149,149,149,149,149,149,St. James Baptist Church,St. James Baptist Church,36.01738685,-78.91391093,https://stjamesbaptistchurch.com/,"All,Brogden Middle,E.K. Powe Elementary,Lakewood Middle,Riverside High"
150,150,150,150,150,150,150,150,150,150,150,150,150,150,150,150,150,150,150,150,150,150,150,150,150,150,150,150,150,150,150,St. John's Missionary Baptist Church,St. John's Missionary Baptist Church,36.01362845,-78.91508486,http://www.stjohnsdurhamnc.org/,"All,Brogden Middle,E.K. Powe Elementary,Lakewood Middle,Riverside High"
151,151,151,151,151,151,151,151,151,151,151,151,151,151,151,151,151,151,151,151,151,151,151,151,151,151,151,151,151,151,151,St. Luke's Episcopal Church,St. Luke's Episcopal Church,36.02790431,-78.93659072,https://stlukesdurham.org/,"All,Brogden Middle,E.K. Powe Elementary,Lakewood Middle,Riverside High"
152,152,152,152,152,152,152,152,152,152,152,152,152,152,152,152,152,152,152,152,152,152,152,152,152,152,152,152,152,152,152,St. Philip's Episcopal Church,St. Philip's Episcopal Church,35.99381765,-78.89640653,https://stphilipsdurham.org/,"All,Brogden Middle,Eastway Elementary,Lakewood Middle,Riverside High"
153,153,153,153,153,153,153,153,153,153,153,153,153,153,153,153,153,153,153,153,153,153,153,153,153,153,153,153,153,153,153,Shady Grove Church,Shady Grove Church,35.93403646,-78.75670042,https://www.shadygrovechurch.net/,"All,Lakewood Middle"
154,154,154,154,154,154,154,154,154,154,154,154,154,154,154,154,154,154,154,154,154,154,154,154,154,154,154,154,154,154,154,Southside Church Of Christ,Southside Church Of Christ,35.96321151,-78.90054704,https://sside.org/,"All,Fayetteville Street Elementary,Hillside High,Lakewood Middle"
155,155,155,155,155,155,155,155,155,155,155,155,155,155,155,155,155,155,155,155,155,155,155,155,155,155,155,155,155,155,155,Saint Joseph's Episcopal Church,Saint Joseph's Episcopal Church,36.00740542,-78.92155899,https://stjosephsdurham.org/,"All,Brogden Middle,E.K. Powe Elementary,Lakewood Middle,Riverside High"
156,156,156,156,156,156,156,156,156,156,156,156,156,156,156,156,156,156,156,156,156,156,156,156,156,156,156,156,156,156,156,St Mark AME Zion,St Mark AME Zion,35.98939272,-78.90121625,https://stmarkamez.org/,"All,Brogden Middle,C.C. Spaulding Elementary,Jordan High,Lakewood Middle"
157,157,157,157,157,157,157,157,157,157,157,157,157,157,157,157,157,157,157,157,157,157,157,157,157,157,157,157,157,157,157,St Paul's Lutheran Church,St Paul's Lutheran Church,35.97773156,-78.93902843,https://www.stpaulsdurham.org/,"All,Brogden Middle,Jordan High,Lakewood Elementary,Lakewood Middle"
158,158,158,158,158,158,158,158,158,158,158,158,158,158,158,158,158,158,158,158,158,158,158,158,158,158,158,158,158,158,158,Revolve Church,Revolve Church,36.01710183,-78.92509559,https://www.revolvechurch.com/,"All,Brogden Middle,E.K. Powe Elementary,Lakewood Middle,Riverside High"
159,159,159,159,159,159,159,159,159,159,159,159,159,159,159,159,159,159,159,159,159,159,159,159,159,159,159,159,159,159,159,Tabernacle Of Life Church,Tabernacle Of Life Church,36.02831286,-78.93042259,https://www.facebook.com/pages/category/Church-of-God/Tabernacle-of-Life-Church-Durham-NC-171733779506850/,"All,Brogden Middle,E.K. Powe Elementary,Lakewood Middle,Riverside High"
160,160,160,160,160,160,160,160,160,160,160,160,160,160,160,160,160,160,160,160,160,160,160,160,160,160,160,160,160,160,160,Temple Baptist Church,Temple Baptist Church,36.07532334,-78.95251884,https://www.tbcdurham.org/,"All,Lakewood Middle,Riverside High"
161,161,161,161,161,161,161,161,161,161,161,161,161,161,161,161,161,161,161,161,161,161,161,161,161,161,161,161,161,161,161,Triangle Grace Church,Triangle Grace Church,35.91271535,-78.94883549,https://www.trianglegrace.org/,"All,Jordan High,Lakewood Middle"
162,162,162,162,162,162,162,162,162,162,162,162,162,162,162,162,162,162,162,162,162,162,162,162,162,162,162,162,162,162,162,Trinity Avenue Presbyterian Church,Trinity Avenue Presbyterian Church,36.0059614,-78.90648191,https://www.trinityave.org/,"All,Brogden Middle,E.K. Powe Elementary,Lakewood Middle,Riverside High"
163,163,163,163,163,163,163,163,163,163,163,163,163,163,163,163,163,163,163,163,163,163,163,163,163,163,163,163,163,163,163,Trinity United Methodist Church,Trinity United Methodist Church,35.9966365,-78.89855645,https://www.trinitydurham.org/,"All,Brogden Middle,Lakewood Middle,Riverside High"
164,164,164,164,164,164,164,164,164,164,164,164,164,164,164,164,164,164,164,164,164,164,164,164,164,164,164,164,164,164,164,Union Baptist Church,Union Baptist Church,36.00034311,-78.89349439,https://myubc.org/,"All,Eastway Elementary,Lakewood Middle"
165,165,165,165,165,165,165,165,165,165,165,165,165,165,165,165,165,165,165,165,165,165,165,165,165,165,165,165,165,165,165,Watts Street Baptist Church,Watts Street Baptist Church,36.00935865,-78.9107748,https://wattsstreet.org/,"All,Brogden Middle,E.K. Powe Elementary,Lakewood Middle,Riverside High"
166,166,166,166,166,166,166,166,166,166,166,166,166,166,166,166,166,166,166,166,166,166,166,166,166,166,166,166,166,166,166,West Durham Baptist Church,West Durham Baptist Church,35.96638958,-78.8884049,http://westdurhambaptist.org/,"All,Hillside High,Lakewood Middle,Lowes Grove Middle"
167,167,167,167,167,167,167,167,167,167,167,167,167,167,167,167,167,167,167,167,167,167,167,167,167,167,167,167,167,167,167,Westminster Presbyterian Church,Westminster Presbyterian Church,35.956157,-78.95410326,https://www.wpcdurham.org/,"All,Jordan High,Lakewood Middle"
168,168,168,168,168,168,168,168,168,168,168,168,168,168,168,168,168,168,168,168,168,168,168,168,168,168,168,168,168,168,168,Yates Baptist Church,Yates Baptist Church,35.97440177,-78.93680488,https://yateschurch.org/,"All,Jordan High,Lakewood Middle"
169,169,169,169,169,169,169,169,169,169,169,169,169,169,169,169,169,169,169,169,169,169,169,169,169,169,169,169,169,169,169,Cedar Fork Baptist Church,Cedar Fork Baptist Church,35.88434718,-78.85035731,http://cedarforkbaptist.org/,"All,Hillside High,Lakewood Middle,Lowes Grove Middle"
170,170,170,170,170,170,170,170,170,170,170,170,170,170,170,170,170,170,170,170,170,170,170,170,170,170,170,170,170,170,170,Faith In Christ Church Worldwide,Faith In Christ Church Worldwide,36.03089986,-78.92503693,https://www.facebook.com/pages/category/Church-of-Christ/Faith-In-Christ-Church-Worldwide-105099401257228/,"All,Lakewood Middle,Riverside High"
171,171,171,171,171,171,171,171,171,171,171,171,171,171,171,171,171,171,171,171,171,171,171,171,171,171,171,171,171,171,171,Gates of Praise Christian Church,Gates of Praise Christian Church,35.95453953,-78.89164825,http://www.gatesofpraisenc.com/,"All,Hillside High,Lakewood Middle,Lowes Grove Middle"
172,172,172,172,172,172,172,172,172,172,172,172,172,172,172,172,172,172,172,172,172,172,172,172,172,172,172,172,172,172,172,New Horizon Church,New Horizon Church,36.04857585,-79.01865172,https://newhorizonchurch.tv/,
173,173,173,173,173,173,173,173,173,173,173,173,173,173,173,173,173,173,173,173,173,173,173,173,173,173,173,173,173,173,173,Obedience to the Word Full Gospel Church,Obedience to the Word Full Gospel Church,36.03143904,-78.88338155,https://www.obediencetotheword.org/,"All,Lakewood Middle"
174,174,174,174,174,174,174,174,174,174,174,174,174,174,174,174,174,174,174,174,174,174,174,174,174,174,174,174,174,174,174,Victorious Praise Fellowship Church,Victorious Praise Fellowship Church,35.93060585,-78.81463343,https://victoriouspraise.org/,"All,Hillside High,Lakewood Middle,Lowes Grove Middle"
175,175,175,175,175,175,175,175,175,175,175,175,175,175,175,175,175,175,175,175,175,175,175,175,175,175,175,175,175,175,175,Antioch Baptist Church,Antioch Baptist Church,35.99457085,-78.87547359,https://antiochdurham.org/,"All,Eastway Elementary,Lakewood Middle"
176,176,176,176,176,176,176,176,176,176,176,176,176,176,176,176,176,176,176,176,176,176,176,176,176,176,176,176,176,176,176,King's Park International Church,King's Park International Church,35.93134473,-78.89313436,https://kingspark.org/,"All,Hillside High,Lakewood Middle,Lowes Grove Middle,Parkwood Elementary"
177,177,177,177,177,177,177,177,177,177,177,177,177,177,177,177,177,177,177,177,177,177,177,177,177,177,177,177,177,177,177,Masjid Tawheed Wa Sunnah,Masjid Tawheed Wa Sunnah,35.92712701,-78.88781651,https://www.mtws.org/,"All,Hillside High,Lakewood Middle,Lowes Grove Middle"
178,178,178,178,178,178,178,178,178,178,178,178,178,178,178,178,178,178,178,178,178,178,178,178,178,178,178,178,178,178,178,Fusion Point Church,Fusion Point Church,35.94681283,-78.92017642,https://www.faithstreet.com/church/fusion-point-church-durham-nc,"All,Hillside High,Lakewood Middle,Lowes Grove Middle,Southwest Elementary"
179,179,179,179,179,179,179,179,179,179,179,179,179,179,179,179,179,179,179,179,179,179,179,179,179,179,179,179,179,179,179,Durham Five Oaks SDA Church,Durham Five Oaks SDA Church,35.94250717,-78.98504192,https://www.fiveoakschurch.net/,"All,Jordan High,Lakewood Middle"
180,180,180,180,180,180,180,180,180,180,180,180,180,180,180,180,180,180,180,180,180,180,180,180,180,180,180,180,180,180,180,Peace Covenant Church of the Brethren,Peace Covenant Church of the Brethren,35.90961902,-78.92550025,https://peace-covenant.squarespace.com/,"All,Hillside High,Lakewood Middle"
181,181,181,181,181,181,181,181,181,181,181,181,181,181,181,181,181,181,181,181,181,181,181,181,181,181,181,181,181,181,181,Pilgrim United Church of Christ,Pilgrim United Church of Christ,35.97108477,-78.9426371,https://www.pilgrimucc-durham.org/,"All,Forest View Elementary,Jordan High,Lakewood Middle"
182,182,182,182,182,182,182,182,182,182,182,182,182,182,182,182,182,182,182,182,182,182,182,182,182,182,182,182,182,182,182,Horton Road Church of God,Horton Road Church of God,36.05719187,-78.91911147,https://www.discoverdurham.com/directory/horton-road-church-of-god/,"All,Lakewood Middle,Riverside High"
183,183,183,183,183,183,183,183,183,183,183,183,183,183,183,183,183,183,183,183,183,183,183,183,183,183,183,183,183,183,183,Greater Joy International Ministries,Greater Joy International Ministries,35.98865179,-78.92846667,,"All,Brogden Middle,Jordan High,Lakewood Elementary,Lakewood Middle"
184,184,184,184,184,184,184,184,184,184,184,184,184,184,184,184,184,184,184,184,184,184,184,184,184,184,184,184,184,184,184,Hope Valley Baptist Church,Hope Valley Baptist Church,35.92045716,-78.96129936,https://www.hvbc.org/,"All,Jordan High,Lakewood Middle"
185,185,185,185,185,185,185,185,185,185,185,185,185,185,185,185,185,185,185,185,185,185,185,185,185,185,185,185,185,185,185,Living Waters Christian Community,Living Waters Christian Community,35.97299711,-78.84935851,https://lwccnc.com/,"All,Lakewood Middle"
186,186,186,186,186,186,186,186,186,186,186,186,186,186,186,186,186,186,186,186,186,186,186,186,186,186,186,186,186,186,186,Mount Calvary United Church of Christ,Mount Calvary United Church of Christ,35.96928766,-78.89086313,https://www.mountcalvaryucc.org/,"All,Hillside High,Lakewood Middle,Lowes Grove Middle"
187,187,187,187,187,187,187,187,187,187,187,187,187,187,187,187,187,187,187,187,187,187,187,187,187,187,187,187,187,187,187,newhope church,newhope church,35.89006383,-78.94239422,https://www.newhopechurch.org/,"All,Jordan High,Lakewood Middle"
188,188,188,188,188,188,188,188,188,188,188,188,188,188,188,188,188,188,188,188,188,188,188,188,188,188,188,188,188,188,188,Eagles' Summit Christian Fellowship Church,Eagles' Summit Christian Fellowship Church,35.99692681,-78.91406951,https://www.facebook.com/pages/category/Religious-organization/St-James-Church-of-Christ-Disciples-of-Christ-421915997866507/,"All,Brogden Middle,E.K. Powe Elementary,Jordan High,Lakewood Middle"
189,189,189,189,189,189,189,189,189,189,189,189,189,189,189,189,189,189,189,189,189,189,189,189,189,189,189,189,189,189,189,St. James Church of Christ,St. James Church of Christ,36.01113508,-78.89417915,https://www.facebook.com/pages/category/Religious-organization/St-James-Church-of-Christ-Disciples-of-Christ-421915997866507/,"All,Brogden Middle,Lakewood Middle,Riverside High"
190,190,190,190,190,190,190,190,190,190,190,190,190,190,190,190,190,190,190,190,190,190,190,190,190,190,190,190,190,190,190,Andrews Chapel United Methodist Church,Andrews Chapel United Methodist Church,35.93393771,-78.77315142,http://andrewschapel.org/,"All,Lakewood Middle"
191,191,191,191,191,191,191,191,191,191,191,191,191,191,191,191,191,191,191,191,191,191,191,191,191,191,191,191,191,191,191,Saint Matthew Catholic Community,Saint Matthew Catholic Community,36.12569986,-78.92252642,https://www.stmatthewcc.org/,"All,Lakewood Middle"
192,192,192,192,192,192,192,192,192,192,192,192,192,192,192,192,192,192,192,192,192,192,192,192,192,192,192,192,192,192,192,St. Stephen's Episcopal Church,St. Stephen's Episcopal Church,35.9357771,-78.95180731,https://www.ssecdurham.org/,"All,Jordan High,Lakewood Middle"
193,193,193,193,193,193,193,193,193,193,193,193,193,193,193,193,193,193,193,193,193,193,193,193,193,193,193,193,193,193,193,Los Pentecostales de Durham,Los Pentecostales de Durham,36.02400569,-78.84762822,https://fpcdurham.org/,"All,Lakewood Middle"
194,194,194,194,194,194,194,194,194,194,194,194,194,194,194,194,194,194,194,194,194,194,194,194,194,194,194,194,194,194,194,New Joy Church,New Joy Church,36.12356764,-78.94058594,https://newjoychurch.net/,"All,Lakewood Middle"
195,195,195,195,195,195,195,195,195,195,195,195,195,195,195,195,195,195,195,195,195,195,195,195,195,195,195,195,195,195,195,Praise Tabernacle Worship Center,Praise Tabernacle Worship Center,35.99675917,-78.91773074,https://www.facebook.com/pages/category/Religious-organization/Praise-Tabernacle-Worship-Center-Page-112301243802090/,"All,Brogden Middle,E.K. Powe Elementary,Jordan High,Lakewood Middle"
196,196,196,196,196,196,196,196,196,196,196,196,196,196,196,196,196,196,196,196,196,196,196,196,196,196,196,196,196,196,196,Divine Grace Worship Center,Divine Grace Worship Center,36.0288232,-78.86754322,https://divinegraceworshipcenter.com/,"All,Lakewood Middle"
197,197,197,197,197,197,197,197,197,197,197,197,197,197,197,197,197,197,197,197,197,197,197,197,197,197,197,197,197,197,197,New Destiny Christian,New Destiny Christian,35.97993974,-78.89564983,https://www.discoverdurham.com/directory/new-destiny-christian/,"All,Jordan High,Lakewood Middle"
198,198,198,198,198,198,198,198,198,198,198,198,198,198,198,198,198,198,198,198,198,198,198,198,198,198,198,198,198,198,198,Durham Immanuel Temple SDA Church,Durham Immanuel Temple SDA Church,35.96152418,-78.88814447,https://www.immanueltemplechurch.com/,"All,Hillside High,Lakewood Middle,Lowes Grove Middle"
199,199,199,199,199,199,199,199,199,199,199,199,199,199,199,199,199,199,199,199,199,199,199,199,199,199,199,199,199,199,199,Edgewood Baptist Church,Edgewood Baptist Church,36.08498123,-78.870935,https://www.edgewoodbaptistdurham.com/,"All,Lakewood Middle"
200,200,200,200,200,200,200,200,200,200,200,200,200,200,200,200,200,200,200,200,200,200,200,200,200,200,200,200,200,200,200,Faith Community Church,Faith Community Church,36.06619852,-78.90564251,https://www.faithforecast.com/,"All,Lakewood Middle"
201,201,201,201,201,201,201,201,201,201,201,201,201,201,201,201,201,201,201,201,201,201,201,201,201,201,201,201,201,201,201,Central Church of Christ,Central Church of Christ,36.02307153,-78.9500901,http://www.centralchurchofchristonline.com/,"All,Brogden Middle,Hillandale Elementary,Lakewood Middle,Riverside High"
202,202,202,202,202,202,202,202,202,202,202,202,202,202,202,202,202,202,202,202,202,202,202,202,202,202,202,202,202,202,202,Greater New Birth Baptist Church,Greater New Birth Baptist Church,35.9853886,-78.87023966,https://www.visitglwc.org/,"All,Lakewood Middle"
203,203,203,203,203,203,203,203,203,203,203,203,203,203,203,203,203,203,203,203,203,203,203,203,203,203,203,203,203,203,203,Organizing Church,Organizing Church,36.00318316,-78.90858325,https://www.organizingchurch.com/contact/,"All,Brogden Middle,E.K. Powe Elementary,Lakewood Middle,Riverside High"
204,204,204,204,204,204,204,204,204,204,204,204,204,204,204,204,204,204,204,204,204,204,204,204,204,204,204,204,204,204,204,Grace Church of Durham,Grace Church of Durham,36.03374198,-78.9525766,https://gracecod.org/,"All,Brogden Middle,Hillandale Elementary,Lakewood Middle,Riverside High"
205,205,205,205,205,205,205,205,205,205,205,205,205,205,205,205,205,205,205,205,205,205,205,205,205,205,205,205,205,205,205,Fletcher's Chapel United,Fletcher's Chapel United,36.01246416,-78.80282774,https://fletcherschapelumc.org/,"All,Lakewood Middle"
206,206,206,206,206,206,206,206,206,206,206,206,206,206,206,206,206,206,206,206,206,206,206,206,206,206,206,206,206,206,206,CityWell,CityWell,35.98253576,-78.93124695,https://citywell.org/,"All,Brogden Middle,Jordan High,Lakewood Elementary,Lakewood Middle"
207,207,207,207,207,207,207,207,207,207,207,207,207,207,207,207,207,207,207,207,207,207,207,207,207,207,207,207,207,207,207,New Metropolitan Baptist Church,New Metropolitan Baptist Church,35.95414127,-78.89674928,https://www.facebook.com/TheNMBC/videos/,"All,Fayetteville Street Elementary,Hillside High,Lakewood Middle"
208,208,208,208,208,208,208,208,208,208,208,208,208,208,208,208,208,208,208,208,208,208,208,208,208,208,208,208,208,208,208,Orange Grove Missionary Baptist Church,Orange Grove Missionary Baptist Church,35.97493077,-78.86613141,https://www.ogmbc.org/,"All,Hillside High,Lakewood Middle,Lowes Grove Middle"
209,209,209,209,209,209,209,209,209,209,209,209,209,209,209,209,209,209,209,209,209,209,209,209,209,209,209,209,209,209,209,Rebirth Baptist Church Ministries,Rebirth Baptist Church Ministries,35.98036673,-78.87910554,,"All,Lakewood Middle"
210,210,210,210,210,210,210,210,210,210,210,210,210,210,210,210,210,210,210,210,210,210,210,210,210,210,210,210,210,210,210,Durham Bah Center,Durham Bah Center,35.89569081,-78.9099498,https://www.durhambahai.org/,"All,Hillside High,Lakewood Middle,Lowes Grove Middle,Parkwood Elementary"
211,211,211,211,211,211,211,211,211,211,211,211,211,211,211,211,211,211,211,211,211,211,211,211,211,211,211,211,211,211,211,St. Paul United Methodist Church,St. Paul United Methodist Church,36.0254033,-78.88914394,https://stpaulumcdurham.com/,"All,Lakewood Middle"
212,212,212,212,212,212,212,212,212,212,212,212,212,212,212,212,212,212,212,212,212,212,212,212,212,212,212,212,212,212,212,Iglesia Cristiana Emanuel,Iglesia Cristiana Emanuel,35.94253838,-78.87715792,https://www.facebook.com/emanueldurhamnc/,"All,Hillside High,Lakewood Middle,Lowes Grove Middle"
213,213,213,213,213,213,213,213,213,213,213,213,213,213,213,213,213,213,213,213,213,213,213,213,213,213,213,213,213,213,213,True Way Holiness Church,True Way Holiness Church,35.98213384,-78.77767075,https://www.facebook.com/TrueWayRaleighNC/,"All,Lakewood Middle"
214,214,214,214,214,214,214,214,214,214,214,214,214,214,214,214,214,214,214,214,214,214,214,214,214,214,214,214,214,214,214,Duke University Chapel,Duke University Chapel,36.00255133,-78.93956562,https://chapel.duke.edu/,"All,Brogden Middle,E.K. Powe Elementary,Lakewood Middle,Riverside High"
215,215,215,215,215,215,215,215,215,215,215,215,215,215,215,215,215,215,215,215,215,215,215,215,215,215,215,215,215,215,215,Beth El Synagogue,Beth El Synagogue,36.01050263,-78.91087296,https://betheldurham.org/,"All,Brogden Middle,E.K. Powe Elementary,Lakewood Middle,Riverside High"
216,216,216,216,216,216,216,216,216,216,216,216,216,216,216,216,216,216,216,216,216,216,216,216,216,216,216,216,216,216,216,Judea Reform Congregation,Judea Reform Congregation,35.9790255,-78.9549293,https://www.judeareform.org/,"All,Brogden Middle,Forest View Elementary,Jordan High,Lakewood Middle"
217,217,217,217,217,217,217,217,217,217,217,217,217,217,217,217,217,217,217,217,217,217,217,217,217,217,217,217,217,217,217,Jewish for Good,Jewish for Good,35.98021238,-78.95497663,https://www.jewishforgood.org/,"All,Brogden Middle,Forest View Elementary,Jordan High,Lakewood Middle"
218,218,218,218,218,218,218,218,218,218,218,218,218,218,218,218,218,218,218,218,218,218,218,218,218,218,218,218,218,218,218,Durham Shambhala Meditation Center,Durham Shambhala Meditation Center,36.01051554,-78.92794748,https://shambhala.org/,"All,Brogden Middle,E.K. Powe Elementary,Lakewood Middle,Riverside High"
219,219,219,219,219,219,219,219,219,219,219,219,219,219,219,219,219,219,219,219,219,219,219,219,219,219,219,219,219,219,219,North Carolina Buddhist Temple,North Carolina Buddhist Temple,35.99148191,-78.786767,http://ec2-52-91-233-108.compute-1.amazonaws.com/wordpress/,"All,Lakewood Middle"
