,Unnamed: 0,name,CENTER_NAME,LATITUDE,LONGITUDE,school_zones
0,0,Faith Assembly Christian Center,Faith Assembly Christian Center,35.96372262,-78.90907645,"Fayetteville St,Hillside,Ten Schools"
1,1,Emmanuel Praise & Worship Center,Emmanuel Praise & Worship Center,35.96506003,-78.90563251,"Fayetteville St,Hillside,Ten Schools"
2,2,W. Deen Mohammed Islamic Center,W. Deen Mohammed Islamic Center,35.98089743,-78.89988185,"CC Spaulding,CEJordan,Ten Schools"
3,3,New Destiny Christian,New Destiny Christian,35.98058488,-78.89584781,"CEJordan,Ten Schools"
4,4,Rebuild Fellowship,Rebuild Fellowship,35.9822518,-78.8969207,"CEJordan,Ten Schools"
5,5,Russell Memorial CME Church,Russell Memorial CME Church,35.98051543,-78.89112712,"Hillside,Ten Schools"
6,6,Word of Life Worship Center,Word of Life Worship Center,35.98502991,-78.89992477,"CC Spaulding,CEJordan,Ten Schools"
7,7,"Durham, Revival Worship Centre","Durham, Revival Worship Centre",35.98867604,-78.89404537,Ten Schools
8,8,Greater Bethlehem Temple Apostolic Faith Church,Greater Bethlehem Temple Apostolic Faith Church,35.98648838,-78.88859512,Ten Schools
9,9,United Nations Worship Center,United Nations Worship Center,35.9872697,-78.92869951,"CEJordan,Lakewood,Ten Schools"
10,10,Kingdom Builders Christian Center,Kingdom Builders Christian Center,35.98060224,-78.95530702,"CEJordan,Forest View,Ten Schools"
11,11,Ar-Razzaq Islamic Center,Ar-Razzaq Islamic Center,35.99824199,-78.91556741,"CEJordan,EK Powe,Ten Schools"
12,12,Ecclesia House of Prayer,Ecclesia House of Prayer,35.99148865,-78.88612749,Ten Schools
13,13,Ekklesia Community Development Center,Ekklesia Community Development Center,35.99628028,-78.88934614,"Eastway,Ten Schools"
14,14,Nehemiah Christian Center,Nehemiah Christian Center,35.99967165,-78.89712309,Ten Schools
15,15,Rivers of Water Christian Center,Rivers of Water Christian Center,35.99510398,-78.87569368,"Eastway,Ten Schools"
16,16,Lincoln Memorial Baptist Church,Lincoln Memorial Baptist Church,35.98017173,-78.90564859,"CC Spaulding,CEJordan,Ten Schools"
17,17,St. Titus' Episcopal Church,St. Titus' Episcopal Church,35.9780533,-78.90238703,"CC Spaulding,CEJordan,Ten Schools"
18,18,Centennial Chapel and Garden,Centennial Chapel and Garden,35.97510129,-78.90105665,"Hillside,Ten Schools"
19,19,Mount Vernon Baptist Church,Mount Vernon Baptist Church,35.98402644,-78.90238703,"CC Spaulding,CEJordan,Ten Schools"
20,20,Gethsemane Baptist Church,Gethsemane Baptist Church,35.98565856,-78.90303076,"CC Spaulding,CEJordan,Ten Schools"
21,21,Mt. Zion Holy Church,Mt. Zion Holy Church,35.97989391,-78.89633596,"CEJordan,Ten Schools"
22,22,First Chronicles Community Church,First Chronicles Community Church,35.98114411,-78.89569223,"CEJordan,Ten Schools"
23,23,Fisher Memorial United Holy Church of America,Fisher Memorial United Holy Church of America,35.98482514,-78.89946878,"CC Spaulding,CEJordan,Ten Schools"
24,24,Covenant Presbyterian Church,Covenant Presbyterian Church,35.96798127,-78.91075552,"CC Spaulding,Hillside,Ten Schools"
25,25,Faucette Memorial CME,Faucette Memorial CME,35.96881487,-78.91637743,"CEJordan,Lakewood,Ten Schools"
26,26,Faith Tabernacle Church of Durham,Faith Tabernacle Church of Durham,35.96429945,-78.92006815,"CEJordan,Southwest,Ten Schools"
27,27,Jamaat Ibad Ar Rahman,Jamaat Ibad Ar Rahman,35.96316188,-78.90854538,"Fayetteville St,Hillside,Ten Schools"
28,28,Southside Church of Christ,Southside Church of Christ,35.96276242,-78.90086353,"Fayetteville St,Hillside,Ten Schools"
29,29,Gateway To Heaven United Holy Church,Gateway To Heaven United Holy Church,35.96672218,-78.9026016,"Fayetteville St,Hillside,Ten Schools"
30,30,Greater Bethlehem Temple Apostolic Faith Church,Greater Bethlehem Temple Apostolic Faith Church,35.98612735,-78.88841808,Ten Schools
31,31,God First People Second Church,God First People Second Church,35.98894006,-78.88919056,Ten Schools
32,32,The Church of the Apostolic Revival International,The Church of the Apostolic Revival International,35.98696076,-78.88764561,Ten Schools
33,33,United Assembly for Christ,United Assembly for Christ,35.98991233,-78.89537037,Ten Schools
34,34,Monroe Christian Church,Monroe Christian Church,35.96442103,-78.88820351,"Hillside,Ten Schools"
35,35,Church of the Abiding Savior,Church of the Abiding Savior,35.96960504,-78.89277399,"Hillside,Ten Schools"
36,36,White Rock Baptist Church,White Rock Baptist Church,35.95767348,-78.91066969,"Fayetteville St,Hillside,Ten Schools"
37,37,Faith Congregation United,Faith Congregation United,35.96300557,-78.92506778,"CEJordan,Southwest,Ten Schools"
38,38,New Life Chapel,New Life Chapel,35.96449918,-78.92133415,"CEJordan,Southwest,Ten Schools"
39,39,Bell Yeager Freewill Baptist Church,Bell Yeager Freewill Baptist Church,35.96432551,-78.91772926,"CEJordan,Southwest,Ten Schools"
40,40,Agape & Power Deliverance Ministry,Agape & Power Deliverance Ministry,35.96514177,-78.91931713,"CEJordan,Southwest,Ten Schools"
41,41,St. Mark African Methodist Episcopal Zion Church,St. Mark African Methodist Episcopal Zion Church,35.98847091,-78.90130985,"CC Spaulding,CEJordan,Ten Schools"
42,42,Immanuel Temple Seventh Day,Immanuel Temple Seventh Day,35.97987617,-78.89540899,"CEJordan,Ten Schools"
43,43,Kyles Temple AME Zion Church,Kyles Temple AME Zion Church,35.97911395,-78.90102156,"CC Spaulding,CEJordan,Ten Schools"
44,44,Restoration of Faith Church,Restoration of Faith Church,35.9714386,-78.91084917,"CC Spaulding,Hillside,Ten Schools"
45,45,St. Joseph's AME Church,St. Joseph's AME Church,35.96861659,-78.90239485,"Fayetteville St,Hillside,Ten Schools"
46,46,A Place of Hope Community Wesleyan Church,A Place of Hope Community Wesleyan Church,36.00474759,-78.8845927,"Eastway,Ten Schools"
47,47,Aldersgate United Methodist Church,Aldersgate United Methodist Church,36.08450584,-78.93997792,Ten Schools
48,48,Asbury United Methodist Church,Asbury United Methodist Church,36.01100048,-78.91805162,"EK Powe,Ten Schools"
49,49,Berea Baptist Church,Berea Baptist Church,35.93122487,-78.91807425,"CEJordan,Southwest,Ten Schools"
50,50,Bethany United Methodist Church,Bethany United Methodist Church,36.03148024,-78.928914,Ten Schools
51,51,Bethel Christian Center,Bethel Christian Center,36.04623483,-78.95784384,Ten Schools
52,52,Bethesda Baptist Church,Bethesda Baptist Church,35.94386521,-78.83874035,"Hillside,Ten Schools"
53,53,World Mission Society Church of God,World Mission Society Church of God,35.93676409,-78.84127324,"Hillside,Ten Schools"
54,54,Blacknall Memorial Church,Blacknall Memorial Church,36.00846089,-78.92126917,"EK Powe,Ten Schools"
55,55,Braggtown Baptist Church,Braggtown Baptist Church,36.03344838,-78.89018134,Ten Schools
56,56,Calvary Baptist Church,Calvary Baptist Church,35.97065728,-78.84946665,Ten Schools
57,57,Elizabeth Street UMC,Elizabeth Street UMC,36.00552795,-78.89123298,"Eastway,Ten Schools"
58,58,Cameron Grove Baptist Church,Cameron Grove Baptist Church,36.03371352,-78.88018981,Ten Schools
59,59,Christ the King Moravian Church,Christ the King Moravian Church,35.92947678,-78.95196943,"CEJordan,Ten Schools"
60,60,Christian Assembly Church,Christian Assembly Church,36.09250662,-78.91014402,Ten Schools
61,61,Christus Victor Lutheran,Christus Victor Lutheran,35.90405872,-78.90445238,"Hillside,Parkwood,Ten Schools"
62,62,Cole Mill Road Church of Christ,Cole Mill Road Church of Christ,36.03940259,-78.95710078,Ten Schools
63,63,The Church of Jesus Christ of Latter-day Saints,The Church of Jesus Christ of Latter-day Saints,36.03850033,-78.95890323,Ten Schools
64,64,Church of God of Prophecy,Church of God of Prophecy,36.03891308,-78.880172,Ten Schools
65,65,Church of the Abiding Savior,Church of the Abiding Savior,35.97032921,-78.89267077,"Hillside,Ten Schools"
66,66,Church of the Good Shepherd,Church of the Good Shepherd,35.97132167,-78.97593549,"CEJordan,Forest View,Ten Schools"
67,67,Church Of The Lord Jesus,Church Of The Lord Jesus,35.98655969,-78.88668376,Ten Schools
68,68,Community Baptist Church,Community Baptist Church,35.93503203,-78.90775737,"Hillside,Parkwood,Ten Schools"
69,69,Cornerstone Bible Church,Cornerstone Bible Church,36.09988517,-78.93219509,Ten Schools
70,70,Cornerstone Community,Cornerstone Community,36.03346967,-78.97726211,Ten Schools
71,71,Covenant Presbyterian Church,Covenant Presbyterian Church,35.96819467,-78.91097548,"CC Spaulding,Hillside,Ten Schools"
72,72,Cresset Baptist Church,Cresset Baptist Church,35.97311698,-78.97364395,"CEJordan,Forest View,Ten Schools"
73,73,Dayspring Fellowship Church,Dayspring Fellowship Church,36.01409258,-78.92156187,"EK Powe,Ten Schools"
74,74,Duke Memorial United Methodist Church,Duke Memorial United Methodist Church,35.99815358,-78.90919692,"CC Spaulding,CEJordan,Ten Schools"
75,75,Duke's Chapel UMC,Duke's Chapel UMC,36.04315832,-78.88094429,Ten Schools
76,76,First Baptist Church Durham,First Baptist Church Durham,35.99741681,-78.89709822,Ten Schools
77,77,Durham Memorial Baptist Church,Durham Memorial Baptist Church,35.975614,-78.80401297,Ten Schools
78,78,Durham Mennonite Church,Durham Mennonite Church,35.98004238,-78.84088296,Ten Schools
79,79,Durham Spanish SDA Church,Durham Spanish SDA Church,35.99229656,-78.87470908,Ten Schools
80,80,Ebenezer Missionary Baptist Church,Ebenezer Missionary Baptist Church,35.95978821,-78.88689095,"Hillside,Ten Schools"
81,81,Edgewood Baptist Church,Edgewood Baptist Church,36.08485984,-78.87123541,Ten Schools
82,82,Emmanuel AME Church,Emmanuel AME Church,35.95626848,-78.88573785,"Hillside,Ten Schools"
83,83,Epworth United Methodist Church,Epworth United Methodist Church,35.97029191,-78.93383555,"CEJordan,Ten Schools"
84,84,Evangel Assembly of God,Evangel Assembly of God,35.97390209,-78.84782217,Ten Schools
85,85,Faith Alliance Church,Faith Alliance Church,36.083839,-78.93852298,Ten Schools
86,86,Faith Assembly Christian Center,Faith Assembly Christian Center,35.96393902,-78.90933797,"Fayetteville St,Hillside,Ten Schools"
87,87,Faith Baptist Church,Faith Baptist Church,36.01484494,-78.82431359,Ten Schools
88,88,Faith Fellowship Church,Faith Fellowship Church,36.01504613,-78.91109223,"EK Powe,Ten Schools"
89,89,First Assembly Of God,First Assembly Of God,36.05080419,-78.87081703,Ten Schools
90,90,First Calvary Baptist Church,First Calvary Baptist Church,35.99234379,-78.91952622,"CC Spaulding,CEJordan,Ten Schools"
91,91,First Chronicles Community Church,First Chronicles Community Church,35.98075511,-78.89601537,"CEJordan,Ten Schools"
92,92,First Free Will Baptist Church,First Free Will Baptist Church,35.98976684,-78.83949808,Ten Schools
93,93,First Presbyterian Church,First Presbyterian Church,35.99417632,-78.89822125,Ten Schools
94,94,Fletcher's Chapel United Methodist Church,Fletcher's Chapel United Methodist Church,36.01272452,-78.80291357,Ten Schools
95,95,Glendale Heights United Methodist Church,Glendale Heights United Methodist Church,36.0261884,-78.90755936,Ten Schools
96,96,Good Shepherd Church Of God,Good Shepherd Church Of God,35.98632962,-78.8815934,Ten Schools
97,97,Gorman Baptist Church,Gorman Baptist Church,36.04491914,-78.81517525,Ten Schools
98,98,Grace Baptist Church,Grace Baptist Church,36.00594564,-78.89367043,Ten Schools
99,99,Grace Evangelical Lutheran Church,Grace Evangelical Lutheran Church,36.01186003,-78.91198063,"EK Powe,Ten Schools"
100,100,Greater Refuge Church,Greater Refuge Church,36.03432046,-78.86577592,Ten Schools
101,101,Grey Stone Baptist Church,Grey Stone Baptist Church,36.01109692,-78.92920422,"EK Powe,Ten Schools"
102,102,Guess Road Baptist Church,Guess Road Baptist Church,36.03533082,-78.92915272,Ten Schools
103,103,Hanmaum Church,Hanmaum Church,35.9071346,-78.90385152,"Hillside,Parkwood,Ten Schools"
104,104,Holy Infant Catholic Church,Holy Infant Catholic Church,35.91407755,-78.94456878,"CEJordan,Southwest,Ten Schools"
105,105,Immaculate Conception Catholic Church,Immaculate Conception Catholic Church,35.99791875,-78.91414545,"CEJordan,EK Powe,Ten Schools"
106,106,Immanuel Baptist Church,Immanuel Baptist Church,36.06102724,-78.94275376,Ten Schools
107,107,Immanuel Free Will Baptist Church,Immanuel Free Will Baptist Church,35.94071081,-78.86278858,"Hillside,Ten Schools"
108,108,Journey Fellowship of Durham,Journey Fellowship of Durham,36.00138161,-78.96828581,"CEJordan,Forest View,Ten Schools"
109,109,Korean Presbyterian Church,Korean Presbyterian Church,36.09565694,-78.91202879,Ten Schools
110,110,Lakeview Missionary Baptist Church,Lakeview Missionary Baptist Church,36.03861619,-78.87736712,Ten Schools
111,111,Oak Church,Oak Church,35.98676692,-78.92880358,"CEJordan,Lakewood,Ten Schools"
112,112,Layman's Chapel Baptist Church,Layman's Chapel Baptist Church,36.05939633,-78.89995454,Ten Schools
113,113,Leesville Road Baptist Church,Leesville Road Baptist Church,35.93838418,-78.78027947,Ten Schools
114,114,Liberty Baptist Church,Liberty Baptist Church,36.06413659,-78.92664668,Ten Schools
115,115,Lowe's Grove Baptist Church,Lowe's Grove Baptist Church,35.90463385,-78.88911034,"Hillside,Ten Schools"
116,116,Markham Chapel Baptist Church,Markham Chapel Baptist Church,35.95749385,-78.9540657,"CEJordan,Ten Schools"
117,117,McMannen United Methodist Church,McMannen United Methodist Church,36.02808654,-78.96239091,Ten Schools
118,118,Millgrove Church Of God In Christ,Millgrove Church Of God In Christ,36.05787946,-78.89867556,Ten Schools
119,119,Morehead Avenue Baptist Church,Morehead Avenue Baptist Church,35.99254255,-78.91657022,"CC Spaulding,CEJordan,Ten Schools"
120,120,Morning Star Missionary Baptist Church,Morning Star Missionary Baptist Church,35.93849436,-78.90828512,"Hillside,Southwest,Ten Schools"
121,121,Mount Hermon Baptist Church,Mount Hermon Baptist Church,36.03144797,-79.02055604,
122,122,Mt. Olive Missionary Baptist Church,Mt. Olive Missionary Baptist Church,36.03839753,-78.8816154,Ten Schools
123,123,Mt. Olive Holy Church,Mt. Olive Holy Church,36.00254301,-78.88487425,"Eastway,Ten Schools"
124,124,Mount Zoar Missionary Baptist Church,Mount Zoar Missionary Baptist Church,36.0052838,-78.8518247,Ten Schools
125,125,Mt. Bethel Presbyterian Church,Mt. Bethel Presbyterian Church,36.04244877,-78.95662851,Ten Schools
126,126,Mt. Gilead Baptist Church,Mt. Gilead Baptist Church,36.00107749,-78.89201675,"Eastway,Ten Schools"
127,127,Mt. Level Missionary Baptist Church,Mt. Level Missionary Baptist Church,36.0596236,-78.8955597,Ten Schools
128,128,Mt. Moriah Baptist Church,Mt. Moriah Baptist Church,35.97284171,-79.00917654,
129,129,Mt. Sylvan United Methodist Church,Mt. Sylvan United Methodist Church,36.09974292,-78.91102483,Ten Schools
130,130,New Bethel Missionary Baptist Church,New Bethel Missionary Baptist Church,36.01394468,-78.9381618,"EK Powe,Ten Schools"
131,131,New Covenant Holiness Church,New Covenant Holiness Church,36.03437373,-78.86875549,Ten Schools
132,132,New Jerusalem Baptist Cathedral,New Jerusalem Baptist Cathedral,36.03746346,-78.88807573,Ten Schools
133,133,New Jerusalem Free Will Church,New Jerusalem Free Will Church,35.98141866,-78.84394151,Ten Schools
134,134,New Shiloh Holiness Church,New Shiloh Holiness Church,35.95224004,-78.88164639,"Hillside,Ten Schools"
135,135,North Durham Baptist Church,North Durham Baptist Church,36.11152489,-78.9285223,Ten Schools
136,136,Northside Christian Church,Northside Christian Church,36.05436615,-78.97382811,Ten Schools
137,137,Oak Grove Free Will Baptist,Oak Grove Free Will Baptist,35.98197327,-78.89308612,"CEJordan,Ten Schools"
138,138,Olive Branch Baptist Church,Olive Branch Baptist Church,35.97493713,-78.78474591,Ten Schools
139,139,Our Savior Lutheran Church,Our Savior Lutheran Church,36.02511576,-78.90596936,Ten Schools
140,140,Parkwood Baptist Church,Parkwood Baptist Church,35.89427436,-78.90720044,"Hillside,Parkwood,Ten Schools"
141,141,Parkwood United Methodist Church,Parkwood United Methodist Church,35.89524159,-78.90973435,"Hillside,Parkwood,Ten Schools"
142,142,Pilgrim Baptist Church,Pilgrim Baptist Church,35.96829927,-78.91658959,"CEJordan,Lakewood,Ten Schools"
143,143,Plainview Baptist Church,Plainview Baptist Church,36.02613546,-78.78373711,Ten Schools
144,144,Progressive Holiness Church,Progressive Holiness Church,35.99500138,-78.87993676,"Eastway,Ten Schools"
145,145,New Creation United Methodist Church,New Creation United Methodist Church,35.94203341,-78.97768858,"CEJordan,Ten Schools"
146,146,Ridgecrest Baptist Church,Ridgecrest Baptist Church,36.10279768,-78.91396113,Ten Schools
147,147,Riverside Baptist Church,Riverside Baptist Church,36.07783366,-78.93208793,Ten Schools
148,148,Rose Of Sharon Baptist Church,Rose Of Sharon Baptist Church,36.06681705,-78.93415645,Ten Schools
149,149,Russell Memorial CME Church,Russell Memorial CME Church,35.98095427,-78.8909633,"Hillside,Ten Schools"
150,150,St. James Baptist Church,St. James Baptist Church,36.01738685,-78.91391093,"EK Powe,Ten Schools"
151,151,St. John's Missionary Baptist Church,St. John's Missionary Baptist Church,36.01362845,-78.91508486,"EK Powe,Ten Schools"
152,152,St. Luke's Episcopal Church,St. Luke's Episcopal Church,36.02790431,-78.93659072,"EK Powe,Ten Schools"
153,153,St. Philip's Episcopal Church,St. Philip's Episcopal Church,35.99381765,-78.89640653,"Eastway,Ten Schools"
154,154,Shady Grove Church,Shady Grove Church,35.93403646,-78.75670042,Ten Schools
155,155,Southside Church Of Christ,Southside Church Of Christ,35.96321151,-78.90054704,"Fayetteville St,Hillside,Ten Schools"
156,156,Saint Joseph's Episcopal Church,Saint Joseph's Episcopal Church,36.00740542,-78.92155899,"EK Powe,Ten Schools"
157,157,St Mark AME Zion,St Mark AME Zion,35.98939272,-78.90121625,"CC Spaulding,CEJordan,Ten Schools"
158,158,St Paul's Lutheran Church,St Paul's Lutheran Church,35.97773156,-78.93902843,"CEJordan,Lakewood,Ten Schools"
159,159,Revolve Church,Revolve Church,36.01710183,-78.92509559,"EK Powe,Ten Schools"
160,160,Tabernacle Of Life Church,Tabernacle Of Life Church,36.02831286,-78.93042259,"EK Powe,Ten Schools"
161,161,Temple Baptist Church,Temple Baptist Church,36.07532334,-78.95251884,Ten Schools
162,162,Triangle Grace Church,Triangle Grace Church,35.91271535,-78.94883549,"CEJordan,Ten Schools"
163,163,Trinity Avenue Presbyterian Church,Trinity Avenue Presbyterian Church,36.0059614,-78.90648191,"EK Powe,Ten Schools"
164,164,Trinity United Methodist Church,Trinity United Methodist Church,35.9966365,-78.89855645,Ten Schools
165,165,Union Baptist Church,Union Baptist Church,36.00034311,-78.89349439,"Eastway,Ten Schools"
166,166,Watts Street Baptist Church,Watts Street Baptist Church,36.00935865,-78.9107748,"EK Powe,Ten Schools"
167,167,West Durham Baptist Church,West Durham Baptist Church,35.96638958,-78.8884049,"Hillside,Ten Schools"
168,168,Westminster Presbyterian Church,Westminster Presbyterian Church,35.956157,-78.95410326,"CEJordan,Ten Schools"
169,169,Yates Baptist Church,Yates Baptist Church,35.97440177,-78.93680488,"CEJordan,Ten Schools"
170,170,Cedar Fork Baptist Church,Cedar Fork Baptist Church,35.88434718,-78.85035731,"Hillside,Ten Schools"
171,171,Faith In Christ Church Worldwide,Faith In Christ Church Worldwide,36.03089986,-78.92503693,Ten Schools
172,172,Gates of Praise Christian Church,Gates of Praise Christian Church,35.95453953,-78.89164825,"Hillside,Ten Schools"
173,173,New Horizon Church,New Horizon Church,36.04857585,-79.01865172,
174,174,Obedience to the Word Full Gospel Church,Obedience to the Word Full Gospel Church,36.03143904,-78.88338155,Ten Schools
175,175,Victorious Praise Fellowship Church,Victorious Praise Fellowship Church,35.93060585,-78.81463343,"Hillside,Ten Schools"
176,176,Antioch Baptist Church,Antioch Baptist Church,35.99457085,-78.87547359,"Eastway,Ten Schools"
177,177,King's Park International Church,King's Park International Church,35.93134473,-78.89313436,"Hillside,Parkwood,Ten Schools"
178,178,Masjid Tawheed Wa Sunnah,Masjid Tawheed Wa Sunnah,35.92712701,-78.88781651,"Hillside,Ten Schools"
179,179,Fusion Point Church,Fusion Point Church,35.94681283,-78.92017642,"Hillside,Southwest,Ten Schools"
180,180,Durham Five Oaks SDA Church,Durham Five Oaks SDA Church,35.94250717,-78.98504192,"CEJordan,Ten Schools"
181,181,Peace Covenant Church of the Brethren,Peace Covenant Church of the Brethren,35.90961902,-78.92550025,"Hillside,Ten Schools"
182,182,Pilgrim United Church of Christ,Pilgrim United Church of Christ,35.97108477,-78.9426371,"CEJordan,Forest View,Ten Schools"
183,183,Horton Road Church of God,Horton Road Church of God,36.05719187,-78.91911147,Ten Schools
184,184,Greater Joy International Ministries,Greater Joy International Ministries,35.98865179,-78.92846667,"CEJordan,Lakewood,Ten Schools"
185,185,Hope Valley Baptist Church,Hope Valley Baptist Church,35.92045716,-78.96129936,"CEJordan,Ten Schools"
186,186,Living Waters Christian Community,Living Waters Christian Community,35.97299711,-78.84935851,Ten Schools
187,187,Mount Calvary United Church of Christ,Mount Calvary United Church of Christ,35.96928766,-78.89086313,"Hillside,Ten Schools"
188,188,newhope church,newhope church,35.89006383,-78.94239422,"CEJordan,Ten Schools"
189,189,Eagles' Summit Christian Fellowship Church,Eagles' Summit Christian Fellowship Church,35.99692681,-78.91406951,"CEJordan,EK Powe,Ten Schools"
190,190,St. James Church of Christ,St. James Church of Christ,36.01113508,-78.89417915,Ten Schools
191,191,Andrews Chapel United Methodist Church,Andrews Chapel United Methodist Church,35.93393771,-78.77315142,Ten Schools
192,192,Saint Matthew Catholic Community,Saint Matthew Catholic Community,36.12569986,-78.92252642,Ten Schools
193,193,St. Stephen's Episcopal Church,St. Stephen's Episcopal Church,35.9357771,-78.95180731,"CEJordan,Ten Schools"
194,194,First Pentecostal Church,First Pentecostal Church,36.04108332,-78.91667938,Ten Schools
195,195,Los Pentecostales de Durham,Los Pentecostales de Durham,36.02400569,-78.84762822,Ten Schools
196,196,New Joy Church,New Joy Church,36.12356764,-78.94058594,Ten Schools
197,197,Praise Tabernacle Worship Center,Praise Tabernacle Worship Center,35.99675917,-78.91773074,"CEJordan,EK Powe,Ten Schools"
198,198,Divine Grace Worship Center,Divine Grace Worship Center,36.0288232,-78.86754322,Ten Schools
199,199,New Destiny Christian,New Destiny Christian,35.97993974,-78.89564983,"CEJordan,Ten Schools"
200,200,Durham Immanuel Temple SDA Church,Durham Immanuel Temple SDA Church,35.96152418,-78.88814447,"Hillside,Ten Schools"
201,201,Edgewood Baptist Church,Edgewood Baptist Church,36.08498123,-78.870935,Ten Schools
202,202,Faith Community Church,Faith Community Church,36.06619852,-78.90564251,Ten Schools
203,203,Central Church of Christ,Central Church of Christ,36.02307153,-78.9500901,Ten Schools
204,204,Greater New Birth Baptist Church,Greater New Birth Baptist Church,35.9853886,-78.87023966,Ten Schools
205,205,Organizing Church,Organizing Church,36.00318316,-78.90858325,"EK Powe,Ten Schools"
206,206,Grace Church of Durham,Grace Church of Durham,36.03374198,-78.9525766,Ten Schools
207,207,Fletcher's Chapel United,Fletcher's Chapel United,36.01246416,-78.80282774,Ten Schools
208,208,CityWell,CityWell,35.98253576,-78.93124695,"CEJordan,Lakewood,Ten Schools"
209,209,New Metropolitan Baptist Church,New Metropolitan Baptist Church,35.95414127,-78.89674928,"Fayetteville St,Hillside,Ten Schools"
210,210,Orange Grove Missionary Baptist Church,Orange Grove Missionary Baptist Church,35.97493077,-78.86613141,"Hillside,Ten Schools"
211,211,Rebirth Baptist Church Ministries,Rebirth Baptist Church Ministries,35.98036673,-78.87910554,Ten Schools
212,212,Durham Bahá’í Center,Durham Bahá’í Center,35.89569081,-78.9099498,"Hillside,Parkwood,Ten Schools"
213,213,St. Paul United Methodist Church,St. Paul United Methodist Church,36.0254033,-78.88914394,Ten Schools
214,214,Iglesia Cristiana Emanuel,Iglesia Cristiana Emanuel,35.94253838,-78.87715792,"Hillside,Ten Schools"
215,215,True Way Holiness Church,True Way Holiness Church,35.98213384,-78.77767075,Ten Schools
216,216,Duke University Chapel,Duke University Chapel,36.00255133,-78.93956562,"EK Powe,Ten Schools"
217,217,Beth El Synagogue,Beth El Synagogue,36.01050263,-78.91087296,"EK Powe,Ten Schools"
218,218,Judea Reform Congregation,Judea Reform Congregation,35.9790255,-78.9549293,"CEJordan,Forest View,Ten Schools"
219,219,Jewish for Good,Jewish for Good,35.98021238,-78.95497663,"CEJordan,Forest View,Ten Schools"
220,220,Durham Shambhala Meditation Center,Durham Shambhala Meditation Center,36.01051554,-78.92794748,"EK Powe,Ten Schools"
221,221,North Carolina Buddhist Temple,North Carolina Buddhist Temple,35.99148191,-78.786767,Ten Schools
