CENTER_NAME,name,LATITUDE,LONGITUDE,URL,school_zones,,,,,,,,,,,,,,,,,,,,,,,,,,,,,,,,,,,,
Faith Assembly Christian Center,Faith Assembly Christian Center,35.96372,-78.90908,https://www.facc-ministries.org,"All,Fayetteville Street Elementary,Hillside High,Lowes Grove Middle",,,,,,,,,,,,,,,,,,,,,,,,,,,,,,,,,,,,
"3120 Fayetteville St, Durham, NC 27707",Emmanuel Praise & Worship Center,35.96506,-78.90563,http://theepwc.org,"All,Fayetteville Street Elementary,Hillside High,GithensMiddle",,,,,,,,,,,,,,,,,,,,,,,,,,,,,,,,,,,,
W. Deen Mohammed Islamic Center,W. Deen Mohammed Islamic Center,35.9809,-78.89988,http://www.wdmislamiccenter.com,"All,Brogden Middle,C.C. Spaulding Elementary,Jordan High",,,,,,,,,,,,,,,,,,,,,,,,,,,,,,,,,,,,
New Destiny Christian,New Destiny Christian,35.98058,-78.89585,https://www.newdestinychristiancenter.com,"All,Jordan High,Githens Middle,W.G. Pearson Elementary",,,,,,,,,,,,,,,,,,,,,,,,,,,,,,,,,,,,
Rebuild Fellowship,Rebuild Fellowship,35.98225,-78.89692,https://www.rebuildchurch.com,"All,Eastway Elementary,Lucas Middle,Northern High",,,,,,,,,,,,,,,,,,,,,,,,,,,,,,,,,,,,
Russell Memorial CME Church,Russell Memorial CME Church,35.98052,-78.89113,http://russellmemorialcme.com,"All,Hillside High,Bethesda Elementary,Lowes Grove Middle",,,,,,,,,,,,,,,,,,,,,,,,,,,,,,,,,,,,
Word of Life Worship Center,Word of Life Worship Center,35.98503,-78.89992,https://wlwc.org,"All,Brogden Middle,C.C. Spaulding Elementary,Jordan High",,,,,,,,,,,,,,,,,,,,,,,,,,,,,,,,,,,,
"Durham, Revival Worship Centre","Durham, Revival Worship Centre",35.98868,-78.89405,http://drwconline.org,"All,Brogden Middle,W.G. Pearson,Riverside High",,,,,,,,,,,,,,,,,,,,,,,,,,,,,,,,,,,,
Greater Bethlehem Temple Apostolic Faith Church,Greater Bethlehem Temple Apostolic Faith Church,35.98649,-78.8886,http://www.usachurches.org/church/bethlehem-temple-apostolic-faith-church.htm,"All,Y.E. Smith Elementary,Neal Middle,Southern School of Energy and Sustainability High School",,,,,,,,,,,,,,,,,,,,,,,,,,,,,,,,,,,,
Ar-Razzaq Islamic Center,Ar-Razzaq Islamic Center,35.99824,-78.91557,https://arrazzaqislamiccenter.org,"All,Brogden Middle,C.C. Spaulding Elementary,Jordan High",,,,,,,,,,,,,,,,,,,,,,,,,,,,,,,,,,,,
Ecclesia House of Prayer,Ecclesia House of Prayer,35.99149,-78.88613,https://www.discoverdurham.com/directory/ecclesia-house-of-prayer/,"All,Brogden Middle,W.G. Pearson,Riverside High",,,,,,,,,,,,,,,,,,,,,,,,,,,,,,,,,,,,
Ekklesia Community Development Center,Ekklesia Community Development Center,35.99628,-78.88935,https://www.guidestar.org/profile/30-0404366,"All,Brogden Middle,Eastway Elementary,Northern High",,,,,,,,,,,,,,,,,,,,,,,,,,,,,,,,,,,,
Nehemiah Christian Center,Nehemiah Christian Center,35.99967,-78.89712,https://www.visitncc.com,"All,Brogden Middle,Glenn Elementary,Riverside High",,,,,,,,,,,,,,,,,,,,,,,,,,,,,,,,,,,,
Rivers of Water Christian Center,Rivers of Water Christian Center,35.9951,-78.87569,https://rowcc.org,"All,Bethesda Elementary,Lowes Grove Middle, Hillside High",,,,,,,,,,,,,,,,,,,,,,,,,,,,,,,,,,,,
Lincoln Memorial Baptist Church,Lincoln Memorial Baptist Church,35.98017,-78.90565,https://mylmbc.org,"All,Brogden Middle,C.C. Spaulding Elementary,Jordan High",,,,,,,,,,,,,,,,,,,,,,,,,,,,,,,,,,,,
St. Titus' Episcopal Church,St. Titus' Episcopal Church,35.97805,-78.90239,https://sttitusdurham.org,"All,Brogden Middle,C.C. Spaulding Elementary,Jordan High",,,,,,,,,,,,,,,,,,,,,,,,,,,,,,,,,,,,
Centennial Chapel and Garden,Centennial Chapel and Garden,35.9751,-78.90106,https://m.nccu.edu/students/device/text/map/detail?filter=&feed=nccu&id=329&parentId=,"All,Hillside High,Brogden Middle,C.C. Spaulding Elementary",,,,,,,,,,,,,,,,,,,,,,,,,,,,,,,,,,,,
Mount Vernon Baptist Church,Mount Vernon Baptist Church,35.98403,-78.90239,https://mvbcdurham.org,"All,Brogden Middle,C.C. Spaulding Elementary,Jordan High",,,,,,,,,,,,,,,,,,,,,,,,,,,,,,,,,,,,
Gethsemane Baptist Church,Gethsemane Baptist Church,35.98566,-78.90303,https://www.discoverdurham.com/directory/gethsemane-baptist-church/,"All,Brogden Middle,C.C. Spaulding Elementary,Jordan High",,,,,,,,,,,,,,,,,,,,,,,,,,,,,,,,,,,,
Mt. Zion Holy Church,Mt. Zion Holy Church,35.97989,-78.89634,http://www.mountzionuhc.com,"All,Jordan High,Githens Middle, W.G. Pearson Elementary",,,,,,,,,,,,,,,,,,,,,,,,,,,,,,,,,,,,
First Chronicles Community Church,First Chronicles Community Church,35.98114,-78.89569,http://firstchroniclescommunitychurch.org,"All,Jordan High,Githens Middle, W.G. Pearson Elementary",,,,,,,,,,,,,,,,,,,,,,,,,,,,,,,,,,,,
Fisher Memorial United Holy Church of America,Fisher Memorial United Holy Church of America,35.98483,-78.89947,https://www.discoverdurham.com/directory/fisher-memorial-united-holy-church-of-america/,"All,Brogden Middle,C.C. Spaulding Elementary,Jordan High",,,,,,,,,,,,,,,,,,,,,,,,,,,,,,,,,,,,
Covenant Presbyterian Church,Covenant Presbyterian Church,35.96798,-78.91076,https://www.cpcdurham.org/about-the-pastor,"All,Brogden Middle,C.C. Spaulding Elementary,Hillside High",,,,,,,,,,,,,,,,,,,,,,,,,,,,,,,,,,,,
Faucette Memorial CME,Faucette Memorial CME,35.96881,-78.91638,https://www.discoverdurham.com/directory/faucette-memorial-c-m-e-church/,"All,Brogden Middle,Jordan High,Lakewood Elementary",,,,,,,,,,,,,,,,,,,,,,,,,,,,,,,,,,,,
Faith Tabernacle Church of Durham,Faith Tabernacle Church of Durham,35.9643,-78.92007,https://www.discoverdurham.com/directory/faith-tabernacle-church-of-durham-inc/,"All,Jordan High,Githens Middle,Southwest Elementary",,,,,,,,,,,,,,,,,,,,,,,,,,,,,,,,,,,,
Jamaat Ibad Ar Rahman,Jamaat Ibad Ar Rahman,35.96316,-78.90855,https://ibadarrahman.org,"All,Fayetteville Street Elementary,Hillside High,Lowes Grove Middle",,,,,,,,,,,,,,,,,,,,,,,,,,,,,,,,,,,,
Southside Church of Christ,Southside Church of Christ,35.96276,-78.90086,https://sside.org,"All,Fayetteville Street Elementary,Hillside High",,,,,,,,,,,,,,,,,,,,,,,,,,,,,,,,,,,,
Gateway To Heaven United Holy Church,Gateway To Heaven United Holy Church,35.96672,-78.9026,https://nccompanies.com/company/0796297/gateway-to-heaven-united-holy-church-inc.html,"All,Fayetteville Street Elementary,Hillside High",,,,,,,,,,,,,,,,,,,,,,,,,,,,,,,,,,,,
Greater Bethlehem Temple Apostolic Faith Church,Greater Bethlehem Temple Apostolic Faith Church,35.98613,-78.88842,http://www.usachurches.org/church/bethlehem-temple-apostolic-faith-church.htm,"All,Y.E. Smith Elementary,Neal Middle,Southern School of Energy and Sustainability High School",,,,,,,,,,,,,,,,,,,,,,,,,,,,,,,,,,,,
God First People Second Church,God First People Second Church,35.98894,-78.88919,https://www.ctmobi.com/listing/8712034/god-first-people-second-church,"All,Brogden Middle,W.G. Pearson Elementary,Riverside High",,,,,,,,,,,,,,,,,,,,,,,,,,,,,,,,,,,,
The Church of the Apostolic Revival International,The Church of the Apostolic Revival International,35.98696,-78.88765,http://www.usachurches.org/church/the-church-of-the-apostolic-revival-international.htm,"All,Y.E. Smith Elementary,Neal Middle,Southern School of Energy and Sustainability High School",,,,,,,,,,,,,,,,,,,,,,,,,,,,,,,,,,,,
United Assembly for Christ,United Assembly for Christ,35.98991,-78.89537,https://www.discoverdurham.com/directory/united-assembly-for-christ/,"All,Brogden Middle,W.G. Pearson Elementary,Riverside High",,,,,,,,,,,,,,,,,,,,,,,,,,,,,,,,,,,,
Monroe Christian Church,Monroe Christian Church,35.96442,-78.8882,https://www.dnb.com/business-directory/company-profiles.monroe_christian_church.4d2817e23e8cff04d9d915c79eda362c.html,"All,Hillside High,Bethesda Elementary,Lowes Grove Middle",,,,,,,,,,,,,,,,,,,,,,,,,,,,,,,,,,,,
Church of the Abiding Savior,Church of the Abiding Savior,35.96961,-78.89277,https://abiding-savior-lutheran.org,"All,Hillside High,Bethesda Elementary,Lowes Grove Middle",,,,,,,,,,,,,,,,,,,,,,,,,,,,,,,,,,,,
White Rock Baptist Church,White Rock Baptist Church,35.95767,-78.91067,https://www.whiterockbaptistchurch.org,"All,Fayetteville Street Elementary,Hillside High,Lowes Grove Middle",,,,,,,,,,,,,,,,,,,,,,,,,,,,,,,,,,,,
New Life Chapel,New Life Chapel,35.9645,-78.92133,https://www.newlifechapel.net,"All,Jordan High,Githens Middle,Southwest Elementary",,,,,,,,,,,,,,,,,,,,,,,,,,,,,,,,,,,,
Bell Yeager Freewill Baptist Church,Bell Yeager Freewill Baptist Church,35.96433,-78.91773,https://www.bellyeagerfwb.org,"All,Hillside High,Brogden Middle,C.C. Spaulding Elementary",,,,,,,,,,,,,,,,,,,,,,,,,,,,,,,,,,,,
Agape & Power Deliverance Ministry,Agape & Power Deliverance Ministry,35.96514,-78.91932,https://toplocalplaces.com/united-states/durham/church-religious-organization/agape-power-deliverance-ministry-uhc-of-america/110315032331593,"All,Jordan High,Githens Middle,Southwest Elementary",,,,,,,,,,,,,,,,,,,,,,,,,,,,,,,,,,,,
St. Mark African Methodist Episcopal Zion Church,St. Mark African Methodist Episcopal Zion Church,35.98847,-78.90131,https://stmarkamez.org,"All,Brogden Middle,C.C. Spaulding Elementary,Jordan High",,,,,,,,,,,,,,,,,,,,,,,,,,,,,,,,,,,,
Immanuel Temple Seventh Day,Immanuel Temple Seventh Day,35.97988,-78.89541,https://www.immanueltemplechurch.com,"All,Hillside High, Bethesda Elementary,Lowes Grove Middle",,,,,,,,,,,,,,,,,,,,,,,,,,,,,,,,,,,,
Kyles Temple AME Zion Church,Kyles Temple AME Zion Church,35.97911,-78.90102,https://www.kylestempleamez.com,"All,Brogden Middle,C.C. Spaulding Elementary,Jordan High",,,,,,,,,,,,,,,,,,,,,,,,,,,,,,,,,,,,
Restoration of Faith Church,Restoration of Faith Church,35.97144,-78.91085,https://opencorporates.com/companies/us_nc/1515588,"All,Brogden Middle,C.C. Spaulding Elementary,Hillside High",,,,,,,,,,,,,,,,,,,,,,,,,,,,,,,,,,,,
St. Joseph's AME Church,St. Joseph's AME Church,35.96862,-78.90239,https://www.stjosephame.org,"All,Fayetteville Street Elementary,Hillside High,Githens Middle",,,,,,,,,,,,,,,,,,,,,,,,,,,,,,,,,,,,
A Place of Hope Community Wesleyan Church,A Place of Hope Community Wesleyan Church,36.00475,-78.88459,https://www.unitedstateschurches.com/north-carolina/a-place-of-hope-community-wesleyan-church-durham/178761,"All,Eastway Elementary,Lucas Middle, Northern High",,,,,,,,,,,,,,,,,,,,,,,,,,,,,,,,,,,,
Aldersgate United Methodist Church,Aldersgate United Methodist Church,36.08451,-78.93998,https://aldersgate.org,"All,Easley Elementary,Carrington Middle,Northern High",,,,,,,,,,,,,,,,,,,,,,,,,,,,,,,,,,,,
Asbury United Methodist Church,Asbury United Methodist Church,36.011,-78.91805,https://www.asburyunitedmethodist.com,"All,Brogden Middle,E.K. Powe Elementary,Riverside High",,,,,,,,,,,,,,,,,,,,,,,,,,,,,,,,,,,,
Berea Baptist Church,Berea Baptist Church,35.93122,-78.91807,http://www.bereabaptistdurham.org,"All,Hillside High,Lowes Grove Middle,Parkwood Elementary",,,,,,,,,,,,,,,,,,,,,,,,,,,,,,,,,,,,